[{"key":"germany_province_state_of_berlin","lat":52.52437,"lon":13.41053,"name":"برلین","nameEn":"State of Berlin","timezone":"Europe/Berlin","country":"DE","admin1":"16","admin1Name":"برلین","admin1NameEn":"State of Berlin","countryName":"آلمان","population":3426354,"tier":"province","isImportant":true},{"key":"germany_province_hamburg","lat":53.55073,"lon":9.99302,"name":"هامبورگ","nameEn":"Hamburg","timezone":"Europe/Berlin","country":"DE","admin1":"04","admin1Name":"هامبورگ","admin1NameEn":"Hamburg","countryName":"آلمان","population":1973896,"tier":"province","isImportant":true},{"key":"germany_province_bavaria","lat":48.13743,"lon":11.57549,"name":"بایرن","nameEn":"Bavaria","timezone":"Europe/Berlin","country":"DE","admin1":"02","admin1Name":"بایرن","admin1NameEn":"Bavaria","countryName":"آلمان","population":1505005,"tier":"province","isImportant":true},{"key":"germany_province_north_rhine_westphalia","lat":50.93333,"lon":6.95,"name":"نوردراین-وستفالن","nameEn":"North Rhine-Westphalia","timezone":"Europe/Berlin","country":"DE","admin1":"07","admin1Name":"نوردراین-وستفالن","admin1NameEn":"North Rhine-Westphalia","countryName":"آلمان","population":1024621,"tier":"province","isImportant":true,"aliases":["Koeln"]},{"key":"germany_province_hesse","lat":50.11552,"lon":8.68417,"name":"هسن","nameEn":"Hesse","timezone":"Europe/Berlin","country":"DE","admin1":"05","admin1Name":"هسن","admin1NameEn":"Hesse","countryName":"آلمان","population":650000,"tier":"province","isImportant":true},{"key":"germany_province_baden_wurttemberg","lat":48.78232,"lon":9.17702,"name":"Baden-Wurttemberg","nameEn":"Baden-Wurttemberg","timezone":"Europe/Berlin","country":"DE","admin1":"01","admin1Name":"Baden-Wurttemberg","admin1NameEn":"Baden-Wurttemberg","countryName":"آلمان","population":612663,"tier":"province","isImportant":true},{"key":"germany_province_saxony","lat":51.05089,"lon":13.73832,"name":"زاکسن","nameEn":"Saxony","timezone":"Europe/Berlin","country":"DE","admin1":"13","admin1Name":"زاکسن","admin1NameEn":"Saxony","countryName":"آلمان","population":564904,"tier":"province","isImportant":true},{"key":"germany_province_bremen","lat":53.07582,"lon":8.80717,"name":"برمن","nameEn":"Bremen","timezone":"Europe/Berlin","country":"DE","admin1":"03","admin1Name":"برمن","admin1NameEn":"Bremen","countryName":"آلمان","population":546501,"tier":"province","isImportant":true},{"key":"germany_province_lower_saxony","lat":52.37052,"lon":9.73322,"name":"نیدرزاکسن","nameEn":"Lower Saxony","timezone":"Europe/Berlin","country":"DE","admin1":"06","admin1Name":"نیدرزاکسن","admin1NameEn":"Lower Saxony","countryName":"آلمان","population":515140,"tier":"province","isImportant":true},{"key":"germany_province_schleswig_holstein","lat":54.32133,"lon":10.13489,"name":"شلسویگ-هولشتاین","nameEn":"Schleswig-Holstein","timezone":"Europe/Berlin","country":"DE","admin1":"10","admin1Name":"شلسویگ-هولشتاین","admin1NameEn":"Schleswig-Holstein","countryName":"آلمان","population":252668,"tier":"province","isImportant":true},{"key":"germany_province_saxony_anhalt","lat":52.13129,"lon":11.63189,"name":"زاکسن-آنهالت","nameEn":"Saxony-Anhalt","timezone":"Europe/Berlin","country":"DE","admin1":"14","admin1Name":"زاکسن-آنهالت","admin1NameEn":"Saxony-Anhalt","countryName":"آلمان","population":244329,"tier":"province","isImportant":true},{"key":"germany_province_rheinland_pfalz","lat":49.98185,"lon":8.28008,"name":"Rheinland-Pfalz","nameEn":"Rheinland-Pfalz","timezone":"Europe/Berlin","country":"DE","admin1":"08","admin1Name":"Rheinland-Pfalz","admin1NameEn":"Rheinland-Pfalz","countryName":"آلمان","population":222889,"tier":"province","isImportant":true},{"key":"germany_province_thuringia","lat":50.97734,"lon":11.03536,"name":"تورینگن","nameEn":"Thuringia","timezone":"Europe/Berlin","country":"DE","admin1":"15","admin1Name":"تورینگن","admin1NameEn":"Thuringia","countryName":"آلمان","population":218793,"tier":"province","isImportant":true},{"key":"germany_province_mecklenburg_vorpommern","lat":54.0887,"lon":12.14049,"name":"مکلنبورگ-فورپومرن","nameEn":"Mecklenburg-Vorpommern","timezone":"Europe/Berlin","country":"DE","admin1":"12","admin1Name":"مکلنبورگ-فورپومرن","admin1NameEn":"Mecklenburg-Vorpommern","countryName":"آلمان","population":198293,"tier":"province","isImportant":true},{"key":"germany_province_brandenburg","lat":52.39886,"lon":13.06566,"name":"براندنبورگ","nameEn":"Brandenburg","timezone":"Europe/Berlin","country":"DE","admin1":"11","admin1Name":"براندنبورگ","admin1NameEn":"Brandenburg","countryName":"آلمان","population":184754,"tier":"province","isImportant":true},{"key":"germany_province_saarland","lat":49.23262,"lon":7.00982,"name":"زارلاند","nameEn":"Saarland","timezone":"Europe/Berlin","country":"DE","admin1":"09","admin1Name":"زارلاند","admin1NameEn":"Saarland","countryName":"آلمان","population":182971,"tier":"province","isImportant":true,"aliases":["Saarbruecken"]},{"key":"germany_duesseldorf","lat":51.22319,"lon":6.77927,"name":"دوسلدورف","nameEn":"Düsseldorf","timezone":"Europe/Berlin","country":"DE","admin1":"07","admin1Name":"نوردراین-وستفالن","admin1NameEn":"North Rhine-Westphalia","countryName":"آلمان","population":618685,"tier":"major","isImportant":true,"aliases":["Duesseldorf"]},{"key":"germany_essen","lat":51.45657,"lon":7.01228,"name":"اسن","nameEn":"Essen","timezone":"Europe/Berlin","country":"DE","admin1":"07","admin1Name":"نوردراین-وستفالن","admin1NameEn":"North Rhine-Westphalia","countryName":"آلمان","population":593085,"tier":"major","isImportant":true},{"key":"germany_dortmund","lat":51.51494,"lon":7.466,"name":"دورتموند","nameEn":"Dortmund","timezone":"Europe/Berlin","country":"DE","admin1":"07","admin1Name":"نوردراین-وستفالن","admin1NameEn":"North Rhine-Westphalia","countryName":"آلمان","population":588462,"tier":"major","isImportant":true},{"key":"germany_nuremberg","lat":49.45421,"lon":11.07752,"name":"Nuremberg","nameEn":"Nuremberg","timezone":"Europe/Berlin","country":"DE","admin1":"02","admin1Name":"بایرن","admin1NameEn":"Bavaria","countryName":"آلمان","population":515543,"tier":"major","isImportant":true},{"key":"germany_leipzig","lat":51.33962,"lon":12.37129,"name":"Leipzig","nameEn":"Leipzig","timezone":"Europe/Berlin","country":"DE","admin1":"13","admin1Name":"زاکسن","admin1NameEn":"Saxony","countryName":"آلمان","population":504971,"tier":"major","isImportant":true},{"key":"germany_duisburg","lat":51.43247,"lon":6.76516,"name":"Duisburg","nameEn":"Duisburg","timezone":"Europe/Berlin","country":"DE","admin1":"07","admin1Name":"نوردراین-وستفالن","admin1NameEn":"North Rhine-Westphalia","countryName":"آلمان","population":504358,"tier":"major","isImportant":true},{"key":"germany_wandsbek","lat":53.58334,"lon":10.08305,"name":"Wandsbek","nameEn":"Wandsbek","timezone":"Europe/Berlin","country":"DE","admin1":"04","admin1Name":"هامبورگ","admin1NameEn":"Hamburg","countryName":"آلمان","population":411422,"tier":"major","isImportant":true},{"key":"germany_bochum","lat":51.48165,"lon":7.21648,"name":"Bochum","nameEn":"Bochum","timezone":"Europe/Berlin","country":"DE","admin1":"07","admin1Name":"نوردراین-وستفالن","admin1NameEn":"North Rhine-Westphalia","countryName":"آلمان","population":385729,"tier":"major","isImportant":true},{"key":"germany_wuppertal","lat":51.25627,"lon":7.14816,"name":"Wuppertal","nameEn":"Wuppertal","timezone":"Europe/Berlin","country":"DE","admin1":"07","admin1Name":"نوردراین-وستفالن","admin1NameEn":"North Rhine-Westphalia","countryName":"آلمان","population":360797,"tier":"major","isImportant":true},{"key":"germany_bielefeld","lat":52.03333,"lon":8.53333,"name":"Bielefeld","nameEn":"Bielefeld","timezone":"Europe/Berlin","country":"DE","admin1":"07","admin1Name":"نوردراین-وستفالن","admin1NameEn":"North Rhine-Westphalia","countryName":"آلمان","population":331906,"tier":"major","isImportant":true},{"key":"germany_bonn","lat":50.73438,"lon":7.09549,"name":"Bonn","nameEn":"Bonn","timezone":"Europe/Berlin","country":"DE","admin1":"07","admin1Name":"نوردراین-وستفالن","admin1NameEn":"North Rhine-Westphalia","countryName":"آلمان","population":330579,"tier":"major","isImportant":true},{"key":"germany_hamburg_nord","lat":53.58935,"lon":9.984,"name":"Hamburg-Nord","nameEn":"Hamburg-Nord","timezone":"Europe/Berlin","country":"DE","admin1":"04","admin1Name":"هامبورگ","admin1NameEn":"Hamburg","countryName":"آلمان","population":315514,"tier":"major","isImportant":true},{"key":"germany_muenster","lat":51.96236,"lon":7.62571,"name":"Münster","nameEn":"Münster","timezone":"Europe/Berlin","country":"DE","admin1":"07","admin1Name":"نوردراین-وستفالن","admin1NameEn":"North Rhine-Westphalia","countryName":"آلمان","population":308258,"tier":"major","isImportant":true,"aliases":["Muenster"]},{"key":"germany_mannheim","lat":49.4891,"lon":8.46694,"name":"Mannheim","nameEn":"Mannheim","timezone":"Europe/Berlin","country":"DE","admin1":"01","admin1Name":"Baden-Wurttemberg","admin1NameEn":"Baden-Wurttemberg","countryName":"آلمان","population":307960,"tier":"major","isImportant":true},{"key":"germany_hamburg_mitte","lat":53.55,"lon":10.01667,"name":"Hamburg-Mitte","nameEn":"Hamburg-Mitte","timezone":"Europe/Berlin","country":"DE","admin1":"04","admin1Name":"هامبورگ","admin1NameEn":"Hamburg","countryName":"آلمان","population":301231,"tier":"major","isImportant":true},{"key":"germany_augsburg","lat":48.37154,"lon":10.89851,"name":"Augsburg","nameEn":"Augsburg","timezone":"Europe/Berlin","country":"DE","admin1":"02","admin1Name":"بایرن","admin1NameEn":"Bavaria","countryName":"آلمان","population":301105,"tier":"major","isImportant":true},{"key":"germany_wiesbaden","lat":50.08601,"lon":8.24435,"name":"Wiesbaden","nameEn":"Wiesbaden","timezone":"Europe/Berlin","country":"DE","admin1":"05","admin1Name":"هسن","admin1NameEn":"Hesse","countryName":"آلمان","population":288850,"tier":"major","isImportant":true},{"key":"germany_marienthal","lat":53.56667,"lon":10.08333,"name":"Marienthal","nameEn":"Marienthal","timezone":"Europe/Berlin","country":"DE","admin1":"04","admin1Name":"هامبورگ","admin1NameEn":"Hamburg","countryName":"آلمان","population":287101,"tier":"major","isImportant":true},{"key":"germany_karlsruhe","lat":49.00937,"lon":8.40444,"name":"Karlsruhe","nameEn":"Karlsruhe","timezone":"Europe/Berlin","country":"DE","admin1":"01","admin1Name":"Baden-Wurttemberg","admin1NameEn":"Baden-Wurttemberg","countryName":"آلمان","population":283799,"tier":"major","isImportant":true},{"key":"germany_gelsenkirchen","lat":51.50508,"lon":7.09654,"name":"Gelsenkirchen","nameEn":"Gelsenkirchen","timezone":"Europe/Berlin","country":"DE","admin1":"07","admin1Name":"نوردراین-وستفالن","admin1NameEn":"North Rhine-Westphalia","countryName":"آلمان","population":270028,"tier":"major","isImportant":true}]