[{"key":"germany_berlin","lat":52.52437,"lon":13.41053,"name":"برلین","nameEn":"Berlin","timezone":"Europe/Berlin","country":"DE","admin1":"16","population":3426354},{"key":"germany_hamburg","lat":53.55073,"lon":9.99302,"name":"هامبورگ","nameEn":"Hamburg","timezone":"Europe/Berlin","country":"DE","admin1":"04","population":1973896},{"key":"germany_munich","lat":48.13743,"lon":11.57549,"name":"مونیخ","nameEn":"Munich","timezone":"Europe/Berlin","country":"DE","admin1":"02","population":1505005},{"key":"germany_koeln","lat":50.93333,"lon":6.95,"name":"Köln","nameEn":"Köln","timezone":"Europe/Berlin","country":"DE","admin1":"07","population":1024621,"aliases":["Koeln"]},{"key":"germany_frankfurt_am_main","lat":50.11552,"lon":8.68417,"name":"Frankfurt am Main","nameEn":"Frankfurt am Main","timezone":"Europe/Berlin","country":"DE","admin1":"05","population":650000},{"key":"germany_duesseldorf","lat":51.22319,"lon":6.77927,"name":"Düsseldorf","nameEn":"Düsseldorf","timezone":"Europe/Berlin","country":"DE","admin1":"07","population":618685,"aliases":["Duesseldorf"]},{"key":"germany_stuttgart","lat":48.78232,"lon":9.17702,"name":"Stuttgart","nameEn":"Stuttgart","timezone":"Europe/Berlin","country":"DE","admin1":"01","population":612663},{"key":"germany_essen","lat":51.45657,"lon":7.01228,"name":"Essen","nameEn":"Essen","timezone":"Europe/Berlin","country":"DE","admin1":"07","population":593085},{"key":"germany_dortmund","lat":51.51494,"lon":7.466,"name":"Dortmund","nameEn":"Dortmund","timezone":"Europe/Berlin","country":"DE","admin1":"07","population":588462},{"key":"germany_dresden","lat":51.05089,"lon":13.73832,"name":"Dresden","nameEn":"Dresden","timezone":"Europe/Berlin","country":"DE","admin1":"13","population":564904},{"key":"germany_bremen","lat":53.07582,"lon":8.80717,"name":"Bremen","nameEn":"Bremen","timezone":"Europe/Berlin","country":"DE","admin1":"03","population":546501},{"key":"germany_nuremberg","lat":49.45421,"lon":11.07752,"name":"Nuremberg","nameEn":"Nuremberg","timezone":"Europe/Berlin","country":"DE","admin1":"02","population":515543},{"key":"germany_hannover","lat":52.37052,"lon":9.73322,"name":"Hannover","nameEn":"Hannover","timezone":"Europe/Berlin","country":"DE","admin1":"06","population":515140},{"key":"germany_leipzig","lat":51.33962,"lon":12.37129,"name":"Leipzig","nameEn":"Leipzig","timezone":"Europe/Berlin","country":"DE","admin1":"13","population":504971},{"key":"germany_duisburg","lat":51.43247,"lon":6.76516,"name":"Duisburg","nameEn":"Duisburg","timezone":"Europe/Berlin","country":"DE","admin1":"07","population":504358},{"key":"germany_wandsbek","lat":53.58334,"lon":10.08305,"name":"Wandsbek","nameEn":"Wandsbek","timezone":"Europe/Berlin","country":"DE","admin1":"04","population":411422},{"key":"germany_bochum","lat":51.48165,"lon":7.21648,"name":"Bochum","nameEn":"Bochum","timezone":"Europe/Berlin","country":"DE","admin1":"07","population":385729},{"key":"germany_wuppertal","lat":51.25627,"lon":7.14816,"name":"Wuppertal","nameEn":"Wuppertal","timezone":"Europe/Berlin","country":"DE","admin1":"07","population":360797},{"key":"germany_bielefeld","lat":52.03333,"lon":8.53333,"name":"Bielefeld","nameEn":"Bielefeld","timezone":"Europe/Berlin","country":"DE","admin1":"07","population":331906},{"key":"germany_bonn","lat":50.73438,"lon":7.09549,"name":"Bonn","nameEn":"Bonn","timezone":"Europe/Berlin","country":"DE","admin1":"07","population":330579},{"key":"germany_hamburg_nord","lat":53.58935,"lon":9.984,"name":"Hamburg-Nord","nameEn":"Hamburg-Nord","timezone":"Europe/Berlin","country":"DE","admin1":"04","population":315514},{"key":"germany_muenster","lat":51.96236,"lon":7.62571,"name":"Münster","nameEn":"Münster","timezone":"Europe/Berlin","country":"DE","admin1":"07","population":308258,"aliases":["Muenster"]},{"key":"germany_mannheim","lat":49.4891,"lon":8.46694,"name":"Mannheim","nameEn":"Mannheim","timezone":"Europe/Berlin","country":"DE","admin1":"01","population":307960},{"key":"germany_hamburg_mitte","lat":53.55,"lon":10.01667,"name":"Hamburg-Mitte","nameEn":"Hamburg-Mitte","timezone":"Europe/Berlin","country":"DE","admin1":"04","population":301231},{"key":"germany_augsburg","lat":48.37154,"lon":10.89851,"name":"Augsburg","nameEn":"Augsburg","timezone":"Europe/Berlin","country":"DE","admin1":"02","population":301105},{"key":"germany_wiesbaden","lat":50.08601,"lon":8.24435,"name":"Wiesbaden","nameEn":"Wiesbaden","timezone":"Europe/Berlin","country":"DE","admin1":"05","population":288850},{"key":"germany_marienthal","lat":53.56667,"lon":10.08333,"name":"Marienthal","nameEn":"Marienthal","timezone":"Europe/Berlin","country":"DE","admin1":"04","population":287101},{"key":"germany_karlsruhe","lat":49.00937,"lon":8.40444,"name":"Karlsruhe","nameEn":"Karlsruhe","timezone":"Europe/Berlin","country":"DE","admin1":"01","population":283799},{"key":"germany_gelsenkirchen","lat":51.50508,"lon":7.09654,"name":"Gelsenkirchen","nameEn":"Gelsenkirchen","timezone":"Europe/Berlin","country":"DE","admin1":"07","population":270028},{"key":"germany_eimsbuettel","lat":53.57416,"lon":9.95679,"name":"Eimsbüttel","nameEn":"Eimsbüttel","timezone":"Europe/Berlin","country":"DE","admin1":"04","population":269118,"aliases":["Eimsbuettel"]},{"key":"germany_aachen","lat":50.77664,"lon":6.08342,"name":"Aachen","nameEn":"Aachen","timezone":"Europe/Berlin","country":"DE","admin1":"07","population":265208},{"key":"germany_moenchengladbach","lat":51.18539,"lon":6.44172,"name":"Mönchengladbach","nameEn":"Mönchengladbach","timezone":"Europe/Berlin","country":"DE","admin1":"07","population":261742,"aliases":["Moenchengladbach"]},{"key":"germany_kiel","lat":54.32133,"lon":10.13489,"name":"Kiel","nameEn":"Kiel","timezone":"Europe/Berlin","country":"DE","admin1":"10","population":252668},{"key":"germany_altona","lat":53.55,"lon":9.93333,"name":"Altona","nameEn":"Altona","timezone":"Europe/Berlin","country":"DE","admin1":"04","population":250192},{"key":"germany_chemnitz","lat":50.8357,"lon":12.92922,"name":"Chemnitz","nameEn":"Chemnitz","timezone":"Europe/Berlin","country":"DE","admin1":"13","population":247220},{"key":"germany_braunschweig","lat":52.26594,"lon":10.52673,"name":"Braunschweig","nameEn":"Braunschweig","timezone":"Europe/Berlin","country":"DE","admin1":"06","population":244715},{"key":"germany_magdeburg","lat":52.13129,"lon":11.63189,"name":"Magdeburg","nameEn":"Magdeburg","timezone":"Europe/Berlin","country":"DE","admin1":"14","population":244329},{"key":"germany_krefeld","lat":51.33645,"lon":6.55381,"name":"Krefeld","nameEn":"Krefeld","timezone":"Europe/Berlin","country":"DE","admin1":"07","population":237984},{"key":"germany_halle_saale","lat":51.48158,"lon":11.97947,"name":"Halle (Saale)","nameEn":"Halle (Saale)","timezone":"Europe/Berlin","country":"DE","admin1":"14","population":237865},{"key":"germany_freiburg","lat":47.9959,"lon":7.85222,"name":"Freiburg","nameEn":"Freiburg","timezone":"Europe/Berlin","country":"DE","admin1":"01","population":237460},{"key":"germany_neue_neustadt","lat":52.15,"lon":11.63333,"name":"Neue Neustadt","nameEn":"Neue Neustadt","timezone":"Europe/Berlin","country":"DE","admin1":"14","population":226851},{"key":"germany_mainz","lat":49.98185,"lon":8.28008,"name":"Mainz","nameEn":"Mainz","timezone":"Europe/Berlin","country":"DE","admin1":"08","population":222889},{"key":"germany_oberhausen","lat":51.47805,"lon":6.8625,"name":"Oberhausen","nameEn":"Oberhausen","timezone":"Europe/Berlin","country":"DE","admin1":"07","population":219176},{"key":"germany_erfurt","lat":50.97734,"lon":11.03536,"name":"Erfurt","nameEn":"Erfurt","timezone":"Europe/Berlin","country":"DE","admin1":"15","population":218793},{"key":"germany_luebeck","lat":53.86893,"lon":10.68729,"name":"Lübeck","nameEn":"Lübeck","timezone":"Europe/Berlin","country":"DE","admin1":"10","population":212207,"aliases":["Luebeck"]},{"key":"germany_hagen","lat":51.36081,"lon":7.47168,"name":"Hagen","nameEn":"Hagen","timezone":"Europe/Berlin","country":"DE","admin1":"07","population":198972},{"key":"germany_rostock","lat":54.0887,"lon":12.14049,"name":"Rostock","nameEn":"Rostock","timezone":"Europe/Berlin","country":"DE","admin1":"12","population":198293},{"key":"germany_kassel","lat":51.31667,"lon":9.5,"name":"Kassel","nameEn":"Kassel","timezone":"Europe/Berlin","country":"DE","admin1":"05","population":197230},{"key":"germany_potsdam","lat":52.39886,"lon":13.06566,"name":"Potsdam","nameEn":"Potsdam","timezone":"Europe/Berlin","country":"DE","admin1":"11","population":184754},{"key":"germany_saarbruecken","lat":49.23262,"lon":7.00982,"name":"Saarbrücken","nameEn":"Saarbrücken","timezone":"Europe/Berlin","country":"DE","admin1":"09","population":182971,"aliases":["Saarbruecken"]},{"key":"germany_hamm","lat":51.68033,"lon":7.82089,"name":"Hamm","nameEn":"Hamm","timezone":"Europe/Berlin","country":"DE","admin1":"07","population":178967},{"key":"germany_muelheim","lat":51.43218,"lon":6.87967,"name":"Mülheim","nameEn":"Mülheim","timezone":"Europe/Berlin","country":"DE","admin1":"07","population":173050,"aliases":["Muelheim"]},{"key":"germany_herne","lat":51.5388,"lon":7.22572,"name":"Herne","nameEn":"Herne","timezone":"Europe/Berlin","country":"DE","admin1":"07","population":172108},{"key":"germany_harburg","lat":53.46057,"lon":9.98388,"name":"Harburg","nameEn":"Harburg","timezone":"Europe/Berlin","country":"DE","admin1":"04","population":169221},{"key":"germany_darmstadt","lat":49.87167,"lon":8.65027,"name":"Darmstadt","nameEn":"Darmstadt","timezone":"Europe/Berlin","country":"DE","admin1":"05","population":167029},{"key":"germany_osnabrueck","lat":52.27264,"lon":8.0498,"name":"Osnabrück","nameEn":"Osnabrück","timezone":"Europe/Berlin","country":"DE","admin1":"06","population":166462,"aliases":["Osnabrueck"]},{"key":"germany_neukoelln","lat":52.47719,"lon":13.43126,"name":"Neukölln","nameEn":"Neukölln","timezone":"Europe/Berlin","country":"DE","admin1":"16","population":164636,"aliases":["Neukoelln"]},{"key":"germany_solingen","lat":51.17343,"lon":7.0845,"name":"Solingen","nameEn":"Solingen","timezone":"Europe/Berlin","country":"DE","admin1":"07","population":164359},{"key":"germany_ludwigshafen_am_rhein","lat":49.48121,"lon":8.44641,"name":"Ludwigshafen am Rhein","nameEn":"Ludwigshafen am Rhein","timezone":"Europe/Berlin","country":"DE","admin1":"08","population":163196},{"key":"germany_leverkusen","lat":51.0303,"lon":6.98432,"name":"Leverkusen","nameEn":"Leverkusen","timezone":"Europe/Berlin","country":"DE","admin1":"07","population":162738},{"key":"germany_oldenburg","lat":53.14039,"lon":8.21479,"name":"Oldenburg","nameEn":"Oldenburg","timezone":"Europe/Berlin","country":"DE","admin1":"06","population":159218},{"key":"germany_kreuzberg","lat":52.49973,"lon":13.40338,"name":"Kreuzberg","nameEn":"Kreuzberg","timezone":"Europe/Berlin","country":"DE","admin1":"16","population":153135},{"key":"germany_neuss","lat":51.19807,"lon":6.68504,"name":"Neuss","nameEn":"Neuss","timezone":"Europe/Berlin","country":"DE","admin1":"07","population":152457},{"key":"germany_regensburg","lat":49.01513,"lon":12.10161,"name":"Regensburg","nameEn":"Regensburg","timezone":"Europe/Berlin","country":"DE","admin1":"02","population":151389},{"key":"germany_prenzlauer_berg_bezirk","lat":52.53878,"lon":13.42443,"name":"Prenzlauer Berg","nameEn":"Prenzlauer Berg","timezone":"Europe/Berlin","country":"DE","admin1":"16","population":148878,"aliases":["Prenzlauer Berg Bezirk"]},{"key":"germany_heidelberg","lat":49.40768,"lon":8.69079,"name":"Heidelberg","nameEn":"Heidelberg","timezone":"Europe/Berlin","country":"DE","admin1":"01","population":143345},{"key":"germany_paderborn","lat":51.71905,"lon":8.75439,"name":"Paderborn","nameEn":"Paderborn","timezone":"Europe/Berlin","country":"DE","admin1":"07","population":142161},{"key":"germany_wuerzburg","lat":49.79391,"lon":9.95121,"name":"Würzburg","nameEn":"Würzburg","timezone":"Europe/Berlin","country":"DE","admin1":"02","population":133731,"aliases":["Wuerzburg"]},{"key":"germany_fuerth","lat":49.47593,"lon":10.98856,"name":"Fürth","nameEn":"Fürth","timezone":"Europe/Berlin","country":"DE","admin1":"02","population":132036,"aliases":["Fuerth"]},{"key":"germany_charlottenburg","lat":52.51667,"lon":13.28333,"name":"Charlottenburg","nameEn":"Charlottenburg","timezone":"Europe/Berlin","country":"DE","admin1":"16","population":129359},{"key":"germany_wolfsburg","lat":52.42452,"lon":10.7815,"name":"Wolfsburg","nameEn":"Wolfsburg","timezone":"Europe/Berlin","country":"DE","admin1":"06","population":123064},{"key":"germany_schoeneberg","lat":52.49801,"lon":13.3443,"name":"Schöneberg","nameEn":"Schöneberg","timezone":"Europe/Berlin","country":"DE","admin1":"16","population":122658,"aliases":["Schoeneberg"]},{"key":"germany_recklinghausen","lat":51.61379,"lon":7.19738,"name":"Recklinghausen","nameEn":"Recklinghausen","timezone":"Europe/Berlin","country":"DE","admin1":"07","population":122438},{"key":"germany_goettingen","lat":51.53443,"lon":9.93228,"name":"Göttingen","nameEn":"Göttingen","timezone":"Europe/Berlin","country":"DE","admin1":"06","population":122149,"aliases":["Goettingen"]},{"key":"germany_heilbronn","lat":49.13995,"lon":9.22054,"name":"Heilbronn","nameEn":"Heilbronn","timezone":"Europe/Berlin","country":"DE","admin1":"01","population":120733},{"key":"germany_ingolstadt","lat":48.76508,"lon":11.42372,"name":"Ingolstadt","nameEn":"Ingolstadt","timezone":"Europe/Berlin","country":"DE","admin1":"02","population":120658},{"key":"germany_ulm","lat":48.39841,"lon":9.99155,"name":"Ulm","nameEn":"Ulm","timezone":"Europe/Berlin","country":"DE","admin1":"01","population":120451},{"key":"germany_bottrop","lat":51.52392,"lon":6.9285,"name":"Bottrop","nameEn":"Bottrop","timezone":"Europe/Berlin","country":"DE","admin1":"07","population":119909},{"key":"germany_bergedorf","lat":53.48462,"lon":10.22904,"name":"Bergedorf","nameEn":"Bergedorf","timezone":"Europe/Berlin","country":"DE","admin1":"04","population":119665},{"key":"germany_pforzheim","lat":48.88436,"lon":8.69892,"name":"Pforzheim","nameEn":"Pforzheim","timezone":"Europe/Berlin","country":"DE","admin1":"01","population":119313},{"key":"germany_offenbach","lat":50.10061,"lon":8.76647,"name":"Offenbach","nameEn":"Offenbach","timezone":"Europe/Berlin","country":"DE","admin1":"05","population":119192},{"key":"germany_bremerhaven","lat":53.55357,"lon":8.57553,"name":"Bremerhaven","nameEn":"Bremerhaven","timezone":"Europe/Berlin","country":"DE","admin1":"03","population":118610},{"key":"germany_friedrichshain_bezirk","lat":52.51559,"lon":13.45482,"name":"Friedrichshain","nameEn":"Friedrichshain","timezone":"Europe/Berlin","country":"DE","admin1":"16","population":117829,"aliases":["Friedrichshain Bezirk"]},{"key":"germany_remscheid","lat":51.17983,"lon":7.1925,"name":"Remscheid","nameEn":"Remscheid","timezone":"Europe/Berlin","country":"DE","admin1":"07","population":117118},{"key":"germany_nippes","lat":50.96545,"lon":6.95314,"name":"Nippes","nameEn":"Nippes","timezone":"Europe/Berlin","country":"DE","admin1":"07","population":113487},{"key":"germany_porz_am_rhein","lat":50.88637,"lon":7.0583,"name":"Porz am Rhein","nameEn":"Porz am Rhein","timezone":"Europe/Berlin","country":"DE","admin1":"07","population":113415},{"key":"germany_reutlingen","lat":48.49144,"lon":9.20427,"name":"Reutlingen","nameEn":"Reutlingen","timezone":"Europe/Berlin","country":"DE","admin1":"01","population":112627},{"key":"germany_marzahn","lat":52.54525,"lon":13.56983,"name":"Marzahn","nameEn":"Marzahn","timezone":"Europe/Berlin","country":"DE","admin1":"16","population":111508},{"key":"germany_rodenkirchen","lat":50.89328,"lon":6.99481,"name":"Rodenkirchen","nameEn":"Rodenkirchen","timezone":"Europe/Berlin","country":"DE","admin1":"07","population":110158},{"key":"germany_koblenz","lat":50.35357,"lon":7.57883,"name":"Koblenz","nameEn":"Koblenz","timezone":"Europe/Berlin","country":"DE","admin1":"08","population":107319},{"key":"germany_siegen","lat":50.87481,"lon":8.02431,"name":"Siegen","nameEn":"Siegen","timezone":"Europe/Berlin","country":"DE","admin1":"07","population":107242},{"key":"germany_bergisch_gladbach","lat":50.9856,"lon":7.13298,"name":"Bergisch Gladbach","nameEn":"Bergisch Gladbach","timezone":"Europe/Berlin","country":"DE","admin1":"07","population":106184},{"key":"germany_salzgitter","lat":52.15705,"lon":10.4154,"name":"Salzgitter","nameEn":"Salzgitter","timezone":"Europe/Berlin","country":"DE","admin1":"06","population":104970},{"key":"germany_jena","lat":50.92878,"lon":11.5899,"name":"Jena","nameEn":"Jena","timezone":"Europe/Berlin","country":"DE","admin1":"15","population":104712},{"key":"germany_gera","lat":50.88029,"lon":12.08187,"name":"Gera","nameEn":"Gera","timezone":"Europe/Berlin","country":"DE","admin1":"15","population":104659},{"key":"germany_moers","lat":51.45342,"lon":6.6326,"name":"Moers","nameEn":"Moers","timezone":"Europe/Berlin","country":"DE","admin1":"07","population":103487},{"key":"germany_hildesheim","lat":52.15077,"lon":9.95112,"name":"Hildesheim","nameEn":"Hildesheim","timezone":"Europe/Berlin","country":"DE","admin1":"06","population":103052},{"key":"germany_erlangen","lat":49.59099,"lon":11.00783,"name":"Erlangen","nameEn":"Erlangen","timezone":"Europe/Berlin","country":"DE","admin1":"02","population":102675},{"key":"germany_mitte","lat":52.52003,"lon":13.40489,"name":"Mitte","nameEn":"Mitte","timezone":"Europe/Berlin","country":"DE","admin1":"16","population":102338},{"key":"germany_wilmersdorf","lat":52.48333,"lon":13.31667,"name":"Wilmersdorf","nameEn":"Wilmersdorf","timezone":"Europe/Berlin","country":"DE","admin1":"16","population":101877},{"key":"germany_trier","lat":49.75565,"lon":6.63935,"name":"Trier","nameEn":"Trier","timezone":"Europe/Berlin","country":"DE","admin1":"08","population":100129},{"key":"germany_zwickau","lat":50.72724,"lon":12.48839,"name":"Zwickau","nameEn":"Zwickau","timezone":"Europe/Berlin","country":"DE","admin1":"13","population":98796},{"key":"germany_kaiserslautern","lat":49.443,"lon":7.77161,"name":"Kaiserslautern","nameEn":"Kaiserslautern","timezone":"Europe/Berlin","country":"DE","admin1":"08","population":98732},{"key":"germany_schwerin","lat":53.62937,"lon":11.41316,"name":"Schwerin","nameEn":"Schwerin","timezone":"Europe/Berlin","country":"DE","admin1":"12","population":96641},{"key":"germany_guetersloh","lat":51.90693,"lon":8.37853,"name":"Gütersloh","nameEn":"Gütersloh","timezone":"Europe/Berlin","country":"DE","admin1":"07","population":96180,"aliases":["Guetersloh"]},{"key":"germany_gesundbrunnen","lat":52.55035,"lon":13.39139,"name":"Gesundbrunnen","nameEn":"Gesundbrunnen","timezone":"Europe/Berlin","country":"DE","admin1":"16","population":93862},{"key":"germany_dueren","lat":50.80434,"lon":6.49299,"name":"Düren","nameEn":"Düren","timezone":"Europe/Berlin","country":"DE","admin1":"07","population":93440,"aliases":["Dueren"]},{"key":"germany_rahlstedt","lat":53.60194,"lon":10.15667,"name":"Rahlstedt","nameEn":"Rahlstedt","timezone":"Europe/Berlin","country":"DE","admin1":"04","population":92511},{"key":"germany_esslingen","lat":48.73961,"lon":9.30473,"name":"Esslingen","nameEn":"Esslingen","timezone":"Europe/Berlin","country":"DE","admin1":"01","population":92390},{"key":"germany_tuebingen","lat":48.52266,"lon":9.05222,"name":"Tübingen","nameEn":"Tübingen","timezone":"Europe/Berlin","country":"DE","admin1":"01","population":92322,"aliases":["Tuebingen"]},{"key":"germany_iserlohn","lat":51.37547,"lon":7.70281,"name":"Iserlohn","nameEn":"Iserlohn","timezone":"Europe/Berlin","country":"DE","admin1":"07","population":91811},{"key":"germany_witten","lat":51.44362,"lon":7.35258,"name":"Witten","nameEn":"Witten","timezone":"Europe/Berlin","country":"DE","admin1":"07","population":91808},{"key":"germany_ratingen","lat":51.29724,"lon":6.84929,"name":"Ratingen","nameEn":"Ratingen","timezone":"Europe/Berlin","country":"DE","admin1":"07","population":91606},{"key":"germany_marl","lat":51.65671,"lon":7.09038,"name":"Marl","nameEn":"Marl","timezone":"Europe/Berlin","country":"DE","admin1":"07","population":91398},{"key":"germany_luenen","lat":51.61634,"lon":7.52872,"name":"Lünen","nameEn":"Lünen","timezone":"Europe/Berlin","country":"DE","admin1":"07","population":91009,"aliases":["Luenen"]},{"key":"germany_giessen","lat":50.58727,"lon":8.67554,"name":"Gießen","nameEn":"Gießen","timezone":"Europe/Berlin","country":"DE","admin1":"05","population":89179,"aliases":["Giessen"]},{"key":"germany_hanau_am_main","lat":50.13423,"lon":8.91418,"name":"Hanau am Main","nameEn":"Hanau am Main","timezone":"Europe/Berlin","country":"DE","admin1":"05","population":88648},{"key":"germany_velbert","lat":51.33537,"lon":7.04348,"name":"Velbert","nameEn":"Velbert","timezone":"Europe/Berlin","country":"DE","admin1":"07","population":87669},{"key":"germany_ludwigsburg","lat":48.89731,"lon":9.19161,"name":"Ludwigsburg","nameEn":"Ludwigsburg","timezone":"Europe/Berlin","country":"DE","admin1":"01","population":87603},{"key":"germany_lichterfelde","lat":52.4333,"lon":13.30762,"name":"Lichterfelde","nameEn":"Lichterfelde","timezone":"Europe/Berlin","country":"DE","admin1":"16","population":85885},{"key":"germany_flensburg","lat":54.78805,"lon":9.43722,"name":"Flensburg","nameEn":"Flensburg","timezone":"Europe/Berlin","country":"DE","admin1":"10","population":85838},{"key":"germany_wedding","lat":52.54734,"lon":13.35594,"name":"Wedding","nameEn":"Wedding","timezone":"Europe/Berlin","country":"DE","admin1":"16","population":85275},{"key":"germany_cottbus","lat":51.75769,"lon":14.32888,"name":"Cottbus","nameEn":"Cottbus","timezone":"Europe/Berlin","country":"DE","admin1":"11","population":84754},{"key":"germany_wilhelmshaven","lat":53.5476,"lon":8.10395,"name":"Wilhelmshaven","nameEn":"Wilhelmshaven","timezone":"Europe/Berlin","country":"DE","admin1":"06","population":84393},{"key":"germany_hellersdorf","lat":52.53319,"lon":13.6088,"name":"Hellersdorf","nameEn":"Hellersdorf","timezone":"Europe/Berlin","country":"DE","admin1":"16","population":84103},{"key":"germany_reinickendorf","lat":52.56395,"lon":13.33552,"name":"Reinickendorf","nameEn":"Reinickendorf","timezone":"Europe/Berlin","country":"DE","admin1":"16","population":83972},{"key":"germany_minden","lat":52.28953,"lon":8.91455,"name":"Minden","nameEn":"Minden","timezone":"Europe/Berlin","country":"DE","admin1":"07","population":82879},{"key":"germany_norderstedt","lat":53.70177,"lon":9.99328,"name":"Norderstedt","nameEn":"Norderstedt","timezone":"Europe/Berlin","country":"DE","admin1":"10","population":82844},{"key":"germany_villingen_schwenningen","lat":48.06226,"lon":8.49358,"name":"Villingen-Schwenningen","nameEn":"Villingen-Schwenningen","timezone":"Europe/Berlin","country":"DE","admin1":"01","population":81770},{"key":"germany_konstanz","lat":47.66033,"lon":9.17582,"name":"Konstanz","nameEn":"Konstanz","timezone":"Europe/Berlin","country":"DE","admin1":"01","population":81275},{"key":"germany_worms","lat":49.63278,"lon":8.35916,"name":"Worms","nameEn":"Worms","timezone":"Europe/Berlin","country":"DE","admin1":"08","population":81099},{"key":"germany_moabit","lat":52.52635,"lon":13.33903,"name":"Moabit","nameEn":"Moabit","timezone":"Europe/Berlin","country":"DE","admin1":"16","population":81021},{"key":"germany_neumuenster","lat":54.07399,"lon":9.98456,"name":"Neumünster","nameEn":"Neumünster","timezone":"Europe/Berlin","country":"DE","admin1":"10","population":80196,"aliases":["Neumuenster"]},{"key":"germany_dorsten","lat":51.66166,"lon":6.96514,"name":"Dorsten","nameEn":"Dorsten","timezone":"Europe/Berlin","country":"DE","admin1":"07","population":79981},{"key":"germany_luedenscheid","lat":51.21977,"lon":7.6273,"name":"Lüdenscheid","nameEn":"Lüdenscheid","timezone":"Europe/Berlin","country":"DE","admin1":"07","population":79386,"aliases":["Luedenscheid"]},{"key":"germany_marburg_an_der_lahn","lat":50.80904,"lon":8.77069,"name":"Marburg an der Lahn","nameEn":"Marburg an der Lahn","timezone":"Europe/Berlin","country":"DE","admin1":"05","population":78895},{"key":"germany_rheinhausen","lat":51.40055,"lon":6.71187,"name":"Rheinhausen","nameEn":"Rheinhausen","timezone":"Europe/Berlin","country":"DE","admin1":"07","population":78203},{"key":"germany_castrop_rauxel","lat":51.55657,"lon":7.31155,"name":"Castrop-Rauxel","nameEn":"Castrop-Rauxel","timezone":"Europe/Berlin","country":"DE","admin1":"07","population":77924},{"key":"germany_bogenhausen","lat":48.15221,"lon":11.61585,"name":"Bogenhausen","nameEn":"Bogenhausen","timezone":"Europe/Berlin","country":"DE","admin1":"02","population":77542},{"key":"germany_rheine","lat":52.28509,"lon":7.44055,"name":"Rheine","nameEn":"Rheine","timezone":"Europe/Berlin","country":"DE","admin1":"07","population":76491},{"key":"germany_viersen","lat":51.25435,"lon":6.39441,"name":"Viersen","nameEn":"Viersen","timezone":"Europe/Berlin","country":"DE","admin1":"07","population":76153},{"key":"germany_delmenhorst","lat":53.0511,"lon":8.63091,"name":"Delmenhorst","nameEn":"Delmenhorst","timezone":"Europe/Berlin","country":"DE","admin1":"06","population":75893},{"key":"germany_gladbeck","lat":51.57077,"lon":6.98593,"name":"Gladbeck","nameEn":"Gladbeck","timezone":"Europe/Berlin","country":"DE","admin1":"07","population":75499},{"key":"germany_arnsberg","lat":51.38333,"lon":8.08333,"name":"Arnsberg","nameEn":"Arnsberg","timezone":"Europe/Berlin","country":"DE","admin1":"07","population":74879},{"key":"germany_troisdorf","lat":50.80901,"lon":7.14968,"name":"Troisdorf","nameEn":"Troisdorf","timezone":"Europe/Berlin","country":"DE","admin1":"07","population":74749},{"key":"germany_wattenscheid","lat":51.48057,"lon":7.14251,"name":"Wattenscheid","nameEn":"Wattenscheid","timezone":"Europe/Berlin","country":"DE","admin1":"07","population":73965},{"key":"germany_bocholt","lat":51.83879,"lon":6.61531,"name":"Bocholt","nameEn":"Bocholt","timezone":"Europe/Berlin","country":"DE","admin1":"07","population":73943},{"key":"germany_detmold","lat":51.93855,"lon":8.87318,"name":"Detmold","nameEn":"Detmold","timezone":"Europe/Berlin","country":"DE","admin1":"07","population":73680},{"key":"germany_bayreuth","lat":49.94782,"lon":11.57893,"name":"Bayreuth","nameEn":"Bayreuth","timezone":"Europe/Berlin","country":"DE","admin1":"02","population":72940},{"key":"germany_steglitz_bezirk","lat":52.45606,"lon":13.332,"name":"Steglitz","nameEn":"Steglitz","timezone":"Europe/Berlin","country":"DE","admin1":"16","population":72464,"aliases":["Steglitz Bezirk"]},{"key":"germany_landshut","lat":48.52961,"lon":12.16179,"name":"Landshut","nameEn":"Landshut","timezone":"Europe/Berlin","country":"DE","admin1":"02","population":71863},{"key":"germany_lueneburg","lat":53.25122,"lon":10.41548,"name":"Lüneburg","nameEn":"Lüneburg","timezone":"Europe/Berlin","country":"DE","admin1":"06","population":71260,"aliases":["Lueneburg"]},{"key":"germany_billstedt","lat":53.55,"lon":10.13333,"name":"Billstedt","nameEn":"Billstedt","timezone":"Europe/Berlin","country":"DE","admin1":"04","population":71077},{"key":"germany_celle","lat":52.62264,"lon":10.08047,"name":"Celle","nameEn":"Celle","timezone":"Europe/Berlin","country":"DE","admin1":"06","population":71010},{"key":"germany_bamberg","lat":49.89873,"lon":10.90067,"name":"Bamberg","nameEn":"Bamberg","timezone":"Europe/Berlin","country":"DE","admin1":"02","population":70047},{"key":"germany_aschaffenburg","lat":49.97704,"lon":9.15214,"name":"Aschaffenburg","nameEn":"Aschaffenburg","timezone":"Europe/Berlin","country":"DE","admin1":"02","population":68551},{"key":"germany_neubrandenburg","lat":53.55735,"lon":13.26105,"name":"Neubrandenburg","nameEn":"Neubrandenburg","timezone":"Europe/Berlin","country":"DE","admin1":"12","population":68082},{"key":"germany_dessau","lat":51.83864,"lon":12.24555,"name":"Dessau","nameEn":"Dessau","timezone":"Europe/Berlin","country":"DE","admin1":"14","population":67747},{"key":"germany_lippstadt","lat":51.67369,"lon":8.34482,"name":"Lippstadt","nameEn":"Lippstadt","timezone":"Europe/Berlin","country":"DE","admin1":"07","population":67219},{"key":"germany_koepenick","lat":52.4455,"lon":13.57455,"name":"Köpenick","nameEn":"Köpenick","timezone":"Europe/Berlin","country":"DE","admin1":"16","population":67148,"aliases":["Koepenick"]},{"key":"germany_aalen","lat":48.83777,"lon":10.0933,"name":"Aalen","nameEn":"Aalen","timezone":"Europe/Berlin","country":"DE","admin1":"01","population":67085},{"key":"germany_dinslaken","lat":51.56227,"lon":6.7434,"name":"Dinslaken","nameEn":"Dinslaken","timezone":"Europe/Berlin","country":"DE","admin1":"07","population":66993},{"key":"germany_neuwied","lat":50.4336,"lon":7.47057,"name":"Neuwied","nameEn":"Neuwied","timezone":"Europe/Berlin","country":"DE","admin1":"08","population":66805},{"key":"germany_unna","lat":51.53795,"lon":7.68969,"name":"Unna","nameEn":"Unna","timezone":"Europe/Berlin","country":"DE","admin1":"07","population":66734},{"key":"germany_plauen","lat":50.4973,"lon":12.13782,"name":"Plauen","nameEn":"Plauen","timezone":"Europe/Berlin","country":"DE","admin1":"13","population":66412},{"key":"germany_pankow","lat":52.56926,"lon":13.40186,"name":"Pankow","nameEn":"Pankow","timezone":"Europe/Berlin","country":"DE","admin1":"16","population":65375},{"key":"germany_herten","lat":51.59638,"lon":7.14387,"name":"Herten","nameEn":"Herten","timezone":"Europe/Berlin","country":"DE","admin1":"07","population":65306},{"key":"germany_herford","lat":52.11457,"lon":8.67343,"name":"Herford","nameEn":"Herford","timezone":"Europe/Berlin","country":"DE","admin1":"07","population":64879},{"key":"germany_grevenbroich","lat":51.09102,"lon":6.5827,"name":"Grevenbroich","nameEn":"Grevenbroich","timezone":"Europe/Berlin","country":"DE","admin1":"07","population":64779},{"key":"germany_weimar","lat":50.9803,"lon":11.32903,"name":"Weimar","nameEn":"Weimar","timezone":"Europe/Berlin","country":"DE","admin1":"15","population":64727},{"key":"germany_kerpen","lat":50.86991,"lon":6.69691,"name":"Kerpen","nameEn":"Kerpen","timezone":"Europe/Berlin","country":"DE","admin1":"07","population":64226},{"key":"germany_fulda","lat":50.55162,"lon":9.67518,"name":"Fulda","nameEn":"Fulda","timezone":"Europe/Berlin","country":"DE","admin1":"05","population":63760},{"key":"germany_dormagen","lat":51.09683,"lon":6.83167,"name":"Dormagen","nameEn":"Dormagen","timezone":"Europe/Berlin","country":"DE","admin1":"07","population":63582},{"key":"germany_bergheim","lat":50.95572,"lon":6.63986,"name":"Bergheim","nameEn":"Bergheim","timezone":"Europe/Berlin","country":"DE","admin1":"07","population":63558},{"key":"germany_garbsen","lat":52.41371,"lon":9.5899,"name":"Garbsen","nameEn":"Garbsen","timezone":"Europe/Berlin","country":"DE","admin1":"06","population":63355},{"key":"germany_tempelhof","lat":52.46667,"lon":13.4,"name":"Tempelhof","nameEn":"Tempelhof","timezone":"Europe/Berlin","country":"DE","admin1":"16","population":61769},{"key":"germany_wesel","lat":51.6669,"lon":6.62037,"name":"Wesel","nameEn":"Wesel","timezone":"Europe/Berlin","country":"DE","admin1":"07","population":61685},{"key":"germany_kempten_allgaeu","lat":47.72674,"lon":10.31389,"name":"Kempten (Allgäu)","nameEn":"Kempten (Allgäu)","timezone":"Europe/Berlin","country":"DE","admin1":"02","population":61399,"aliases":["Kempten (Allgaeu)"]},{"key":"germany_sindelfingen","lat":48.7,"lon":9.01667,"name":"Sindelfingen","nameEn":"Sindelfingen","timezone":"Europe/Berlin","country":"DE","admin1":"01","population":61311},{"key":"germany_schwaebisch_gmuend","lat":48.79947,"lon":9.79809,"name":"Schwäbisch Gmünd","nameEn":"Schwäbisch Gmünd","timezone":"Europe/Berlin","country":"DE","admin1":"01","population":61216,"aliases":["Schwaebisch Gmuend"]},{"key":"germany_rosenheim","lat":47.85637,"lon":12.12247,"name":"Rosenheim","nameEn":"Rosenheim","timezone":"Europe/Berlin","country":"DE","admin1":"02","population":60167},{"key":"germany_brandenburg_an_der_havel","lat":52.41667,"lon":12.55,"name":"Brandenburg an der Havel","nameEn":"Brandenburg an der Havel","timezone":"Europe/Berlin","country":"DE","admin1":"11","population":59826},{"key":"germany_ruesselsheim_am_main","lat":49.98955,"lon":8.42251,"name":"Rüsselsheim am Main","nameEn":"Rüsselsheim am Main","timezone":"Europe/Berlin","country":"DE","admin1":"05","population":59730,"aliases":["Ruesselsheim am Main"]},{"key":"germany_berlin_koepenick","lat":52.44254,"lon":13.58228,"name":"Berlin Köpenick","nameEn":"Berlin Köpenick","timezone":"Europe/Berlin","country":"DE","admin1":"16","population":59561,"aliases":["Berlin Koepenick"]},{"key":"germany_offenburg","lat":48.47377,"lon":7.94495,"name":"Offenburg","nameEn":"Offenburg","timezone":"Europe/Berlin","country":"DE","admin1":"01","population":59238},{"key":"germany_langenfeld","lat":51.10821,"lon":6.94831,"name":"Langenfeld","nameEn":"Langenfeld","timezone":"Europe/Berlin","country":"DE","admin1":"07","population":59112},{"key":"germany_stralsund","lat":54.30911,"lon":13.0818,"name":"Stralsund","nameEn":"Stralsund","timezone":"Europe/Berlin","country":"DE","admin1":"12","population":58976},{"key":"germany_hameln","lat":52.10397,"lon":9.35623,"name":"Hameln","nameEn":"Hameln","timezone":"Europe/Berlin","country":"DE","admin1":"06","population":58666},{"key":"germany_friedrichshafen","lat":47.65689,"lon":9.47554,"name":"Friedrichshafen","nameEn":"Friedrichshafen","timezone":"Europe/Berlin","country":"DE","admin1":"01","population":58403},{"key":"germany_goeppingen","lat":48.70354,"lon":9.65209,"name":"Göppingen","nameEn":"Göppingen","timezone":"Europe/Berlin","country":"DE","admin1":"01","population":58040,"aliases":["Goeppingen"]},{"key":"germany_goerlitz","lat":51.15518,"lon":14.98853,"name":"Görlitz","nameEn":"Görlitz","timezone":"Europe/Berlin","country":"DE","admin1":"13","population":57751,"aliases":["Goerlitz"]},{"key":"germany_stolberg","lat":50.77368,"lon":6.22595,"name":"Stolberg","nameEn":"Stolberg","timezone":"Europe/Berlin","country":"DE","admin1":"07","population":57684},{"key":"germany_frankfurt_oder","lat":52.34714,"lon":14.55062,"name":"Frankfurt (Oder)","nameEn":"Frankfurt (Oder)","timezone":"Europe/Berlin","country":"DE","admin1":"11","population":57107},{"key":"germany_neu_hohenschoenhausen","lat":52.56681,"lon":13.51255,"name":"Neu-Hohenschönhausen","nameEn":"Neu-Hohenschönhausen","timezone":"Europe/Berlin","country":"DE","admin1":"16","population":56921,"aliases":["Neu-Hohenschoenhausen"]},{"key":"germany_baden_baden","lat":48.7606,"lon":8.23975,"name":"Baden-Baden","nameEn":"Baden-Baden","timezone":"Europe/Berlin","country":"DE","admin1":"01","population":56881},{"key":"germany_hattingen","lat":51.39894,"lon":7.18557,"name":"Hattingen","nameEn":"Hattingen","timezone":"Europe/Berlin","country":"DE","admin1":"07","population":56866},{"key":"germany_hilden","lat":51.16818,"lon":6.93093,"name":"Hilden","nameEn":"Hilden","timezone":"Europe/Berlin","country":"DE","admin1":"07","population":56565},{"key":"germany_winterhude","lat":53.59368,"lon":10.01123,"name":"Winterhude","nameEn":"Winterhude","timezone":"Europe/Berlin","country":"DE","admin1":"04","population":56382},{"key":"germany_sankt_augustin","lat":50.77538,"lon":7.197,"name":"Sankt Augustin","nameEn":"Sankt Augustin","timezone":"Europe/Berlin","country":"DE","admin1":"07","population":56094},{"key":"germany_eschweiler","lat":50.81854,"lon":6.27184,"name":"Eschweiler","nameEn":"Eschweiler","timezone":"Europe/Berlin","country":"DE","admin1":"07","population":55778},{"key":"germany_friedrichsfelde","lat":52.50575,"lon":13.50812,"name":"Friedrichsfelde","nameEn":"Friedrichsfelde","timezone":"Europe/Berlin","country":"DE","admin1":"16","population":55423},{"key":"germany_ahlen","lat":51.76338,"lon":7.8887,"name":"Ahlen","nameEn":"Ahlen","timezone":"Europe/Berlin","country":"DE","admin1":"07","population":55280},{"key":"germany_bad_salzuflen","lat":52.0862,"lon":8.74434,"name":"Bad Salzuflen","nameEn":"Bad Salzuflen","timezone":"Europe/Berlin","country":"DE","admin1":"07","population":54899},{"key":"germany_euskirchen","lat":50.66057,"lon":6.78722,"name":"Euskirchen","nameEn":"Euskirchen","timezone":"Europe/Berlin","country":"DE","admin1":"07","population":54889},{"key":"germany_meerbusch","lat":51.25268,"lon":6.68807,"name":"Meerbusch","nameEn":"Meerbusch","timezone":"Europe/Berlin","country":"DE","admin1":"07","population":54826},{"key":"germany_wolfenbuettel","lat":52.16442,"lon":10.54095,"name":"Wolfenbüttel","nameEn":"Wolfenbüttel","timezone":"Europe/Berlin","country":"DE","admin1":"06","population":54740,"aliases":["Wolfenbuettel"]},{"key":"germany_huerth","lat":50.87079,"lon":6.86761,"name":"Hürth","nameEn":"Hürth","timezone":"Europe/Berlin","country":"DE","admin1":"07","population":54678,"aliases":["Huerth"]},{"key":"germany_zehlendorf","lat":52.43333,"lon":13.25,"name":"Zehlendorf","nameEn":"Zehlendorf","timezone":"Europe/Berlin","country":"DE","admin1":"16","population":54328},{"key":"germany_schweinfurt","lat":50.04937,"lon":10.22175,"name":"Schweinfurt","nameEn":"Schweinfurt","timezone":"Europe/Berlin","country":"DE","admin1":"02","population":54012},{"key":"germany_neustadt_an_der_weinstrasse","lat":49.35009,"lon":8.13886,"name":"Neustadt an der Weinstraße","nameEn":"Neustadt an der Weinstraße","timezone":"Europe/Berlin","country":"DE","admin1":"08","population":53984,"aliases":["Neustadt an der Weinstrasse"]},{"key":"germany_pulheim","lat":50.99965,"lon":6.80632,"name":"Pulheim","nameEn":"Pulheim","timezone":"Europe/Berlin","country":"DE","admin1":"07","population":53762},{"key":"germany_gummersbach","lat":51.02608,"lon":7.56473,"name":"Gummersbach","nameEn":"Gummersbach","timezone":"Europe/Berlin","country":"DE","admin1":"07","population":53131},{"key":"germany_wilhelmsburg","lat":53.49283,"lon":10.01372,"name":"Wilhelmsburg","nameEn":"Wilhelmsburg","timezone":"Europe/Berlin","country":"DE","admin1":"04","population":53064},{"key":"germany_waiblingen","lat":48.83241,"lon":9.31641,"name":"Waiblingen","nameEn":"Waiblingen","timezone":"Europe/Berlin","country":"DE","admin1":"01","population":52945},{"key":"germany_nordhorn","lat":52.43081,"lon":7.06833,"name":"Nordhorn","nameEn":"Nordhorn","timezone":"Europe/Berlin","country":"DE","admin1":"06","population":52803},{"key":"germany_mariendorf","lat":52.4378,"lon":13.38109,"name":"Mariendorf","nameEn":"Mariendorf","timezone":"Europe/Berlin","country":"DE","admin1":"16","population":52734},{"key":"germany_universitats_und_hansestadt_greifswald","lat":54.08905,"lon":13.40244,"name":"Universitäts- und Hansestadt Greifswald","nameEn":"Universitäts- und Hansestadt Greifswald","timezone":"Europe/Berlin","country":"DE","admin1":"12","population":52731,"aliases":["Universitats- und Hansestadt Greifswald"]},{"key":"germany_cuxhaven","lat":53.86828,"lon":8.69902,"name":"Cuxhaven","nameEn":"Cuxhaven","timezone":"Europe/Berlin","country":"DE","admin1":"06","population":52677},{"key":"germany_wetzlar","lat":50.56109,"lon":8.50495,"name":"Wetzlar","nameEn":"Wetzlar","timezone":"Europe/Berlin","country":"DE","admin1":"05","population":52656},{"key":"germany_menden","lat":51.44337,"lon":7.77825,"name":"Menden","nameEn":"Menden","timezone":"Europe/Berlin","country":"DE","admin1":"07","population":52452},{"key":"germany_bergkamen","lat":51.61633,"lon":7.64451,"name":"Bergkamen","nameEn":"Bergkamen","timezone":"Europe/Berlin","country":"DE","admin1":"07","population":52329},{"key":"germany_frechen","lat":50.91485,"lon":6.8118,"name":"Frechen","nameEn":"Frechen","timezone":"Europe/Berlin","country":"DE","admin1":"07","population":52309},{"key":"germany_lichtenrade","lat":52.39844,"lon":13.40637,"name":"Lichtenrade","nameEn":"Lichtenrade","timezone":"Europe/Berlin","country":"DE","admin1":"16","population":52110},{"key":"germany_bad_homburg_vor_der_hoehe","lat":50.22683,"lon":8.61816,"name":"Bad Homburg vor der Höhe","nameEn":"Bad Homburg vor der Höhe","timezone":"Europe/Berlin","country":"DE","admin1":"05","population":51859,"aliases":["Bad Homburg vor der Hoehe"]},{"key":"germany_willich","lat":51.26371,"lon":6.54734,"name":"Willich","nameEn":"Willich","timezone":"Europe/Berlin","country":"DE","admin1":"07","population":51843},{"key":"germany_emden","lat":53.36592,"lon":7.20846,"name":"Emden","nameEn":"Emden","timezone":"Europe/Berlin","country":"DE","admin1":"06","population":51526},{"key":"germany_neu_ulm","lat":48.39279,"lon":10.01112,"name":"Neu-Ulm","nameEn":"Neu-Ulm","timezone":"Europe/Berlin","country":"DE","admin1":"02","population":51389},{"key":"germany_lingen","lat":52.52269,"lon":7.32555,"name":"Lingen","nameEn":"Lingen","timezone":"Europe/Berlin","country":"DE","admin1":"06","population":51310},{"key":"germany_erftstadt","lat":50.81481,"lon":6.79387,"name":"Erftstadt","nameEn":"Erftstadt","timezone":"Europe/Berlin","country":"DE","admin1":"07","population":51207},{"key":"germany_neubrueck","lat":51.13434,"lon":6.63857,"name":"Neubrück","nameEn":"Neubrück","timezone":"Europe/Berlin","country":"DE","admin1":"07","population":51109,"aliases":["Neubrueck"]},{"key":"germany_lahr","lat":48.34042,"lon":7.86886,"name":"Lahr","nameEn":"Lahr","timezone":"Europe/Berlin","country":"DE","admin1":"01","population":50775},{"key":"germany_ibbenbueren","lat":52.27964,"lon":7.71457,"name":"Ibbenbueren","nameEn":"Ibbenbueren","timezone":"Europe/Berlin","country":"DE","admin1":"07","population":50577},{"key":"germany_passau","lat":48.5665,"lon":13.43122,"name":"Passau","nameEn":"Passau","timezone":"Europe/Berlin","country":"DE","admin1":"02","population":50560},{"key":"germany_gronau","lat":52.21099,"lon":7.02238,"name":"Gronau","nameEn":"Gronau","timezone":"Europe/Berlin","country":"DE","admin1":"07","population":50547},{"key":"germany_langenhagen","lat":52.44758,"lon":9.73741,"name":"Langenhagen","nameEn":"Langenhagen","timezone":"Europe/Berlin","country":"DE","admin1":"06","population":50439},{"key":"germany_schwerte","lat":51.44387,"lon":7.5675,"name":"Schwerte","nameEn":"Schwerte","timezone":"Europe/Berlin","country":"DE","admin1":"07","population":50399},{"key":"germany_speyer","lat":49.32083,"lon":8.43111,"name":"Speyer","nameEn":"Speyer","timezone":"Europe/Berlin","country":"DE","admin1":"08","population":50343},{"key":"germany_alt_hohenschoenhausen","lat":52.54608,"lon":13.5013,"name":"Alt-Hohenschönhausen","nameEn":"Alt-Hohenschönhausen","timezone":"Europe/Berlin","country":"DE","admin1":"16","population":50070,"aliases":["Alt-Hohenschoenhausen"]},{"key":"germany_heidenheim_an_der_brenz","lat":48.67798,"lon":10.15162,"name":"Heidenheim an der Brenz","nameEn":"Heidenheim an der Brenz","timezone":"Europe/Berlin","country":"DE","admin1":"01","population":50067},{"key":"germany_treptow","lat":52.49376,"lon":13.44469,"name":"Treptow","nameEn":"Treptow","timezone":"Europe/Berlin","country":"DE","admin1":"16","population":50000},{"key":"germany_peine","lat":52.31928,"lon":10.2352,"name":"Peine","nameEn":"Peine","timezone":"Europe/Berlin","country":"DE","admin1":"06","population":49953},{"key":"germany_neunkirchen","lat":49.34449,"lon":7.18045,"name":"Neunkirchen","nameEn":"Neunkirchen","timezone":"Europe/Berlin","country":"DE","admin1":"09","population":49843},{"key":"germany_bad_oeynhausen","lat":52.20699,"lon":8.80365,"name":"Bad Oeynhausen","nameEn":"Bad Oeynhausen","timezone":"Europe/Berlin","country":"DE","admin1":"07","population":49513},{"key":"germany_leonberg","lat":48.8,"lon":9.01667,"name":"Leonberg","nameEn":"Leonberg","timezone":"Europe/Berlin","country":"DE","admin1":"01","population":49480},{"key":"germany_hof","lat":50.31297,"lon":11.91261,"name":"Hof","nameEn":"Hof","timezone":"Europe/Berlin","country":"DE","admin1":"02","population":49239},{"key":"germany_kleve","lat":51.78826,"lon":6.13865,"name":"Kleve","nameEn":"Kleve","timezone":"Europe/Berlin","country":"DE","admin1":"07","population":49072},{"key":"germany_ravensburg","lat":47.78198,"lon":9.61062,"name":"Ravensburg","nameEn":"Ravensburg","timezone":"Europe/Berlin","country":"DE","admin1":"01","population":48825},{"key":"germany_elmshorn","lat":53.74912,"lon":9.66176,"name":"Elmshorn","nameEn":"Elmshorn","timezone":"Europe/Berlin","country":"DE","admin1":"10","population":48703},{"key":"germany_bornheim","lat":50.76313,"lon":6.99089,"name":"Bornheim","nameEn":"Bornheim","timezone":"Europe/Berlin","country":"DE","admin1":"07","population":48523},{"key":"germany_soest","lat":51.57558,"lon":8.10619,"name":"Soest","nameEn":"Soest","timezone":"Europe/Berlin","country":"DE","admin1":"07","population":48037},{"key":"germany_hennef_sieg","lat":50.77555,"lon":7.28308,"name":"Hennef (Sieg)","nameEn":"Hennef (Sieg)","timezone":"Europe/Berlin","country":"DE","admin1":"07","population":48002},{"key":"germany_rastatt","lat":48.85851,"lon":8.20965,"name":"Rastatt","nameEn":"Rastatt","timezone":"Europe/Berlin","country":"DE","admin1":"01","population":47906},{"key":"germany_erkrath","lat":51.22235,"lon":6.90831,"name":"Erkrath","nameEn":"Erkrath","timezone":"Europe/Berlin","country":"DE","admin1":"07","population":47815},{"key":"germany_bruchsal","lat":49.12426,"lon":8.59804,"name":"Bruchsal","nameEn":"Bruchsal","timezone":"Europe/Berlin","country":"DE","admin1":"01","population":47784},{"key":"germany_weissensee","lat":52.55632,"lon":13.46649,"name":"Weißensee","nameEn":"Weißensee","timezone":"Europe/Berlin","country":"DE","admin1":"16","population":47693,"aliases":["Weissensee"]},{"key":"germany_singen","lat":47.75935,"lon":8.8403,"name":"Singen","nameEn":"Singen","timezone":"Europe/Berlin","country":"DE","admin1":"01","population":47621},{"key":"germany_stuttgart_ost","lat":48.78363,"lon":9.21032,"name":"Stuttgart-Ost","nameEn":"Stuttgart-Ost","timezone":"Europe/Berlin","country":"DE","admin1":"01","population":47500},{"key":"germany_duelmen","lat":51.83149,"lon":7.28075,"name":"Dülmen","nameEn":"Dülmen","timezone":"Europe/Berlin","country":"DE","admin1":"07","population":47495,"aliases":["Duelmen"]},{"key":"germany_frankenthal","lat":49.53414,"lon":8.35357,"name":"Frankenthal","nameEn":"Frankenthal","timezone":"Europe/Berlin","country":"DE","admin1":"08","population":47438},{"key":"germany_herzogenrath","lat":50.86874,"lon":6.09317,"name":"Herzogenrath","nameEn":"Herzogenrath","timezone":"Europe/Berlin","country":"DE","admin1":"07","population":47381},{"key":"germany_loerrach","lat":47.61497,"lon":7.66457,"name":"Lörrach","nameEn":"Lörrach","timezone":"Europe/Berlin","country":"DE","admin1":"01","population":47002,"aliases":["Loerrach"]},{"key":"germany_albstadt","lat":48.21644,"lon":9.02596,"name":"Albstadt","nameEn":"Albstadt","timezone":"Europe/Berlin","country":"DE","admin1":"01","population":46950},{"key":"germany_oberursel","lat":50.20731,"lon":8.57747,"name":"Oberursel","nameEn":"Oberursel","timezone":"Europe/Berlin","country":"DE","admin1":"05","population":46736},{"key":"germany_gotha","lat":50.94823,"lon":10.70193,"name":"Gotha","nameEn":"Gotha","timezone":"Europe/Berlin","country":"DE","admin1":"15","population":46615},{"key":"germany_melle","lat":52.20197,"lon":8.33826,"name":"Melle","nameEn":"Melle","timezone":"Europe/Berlin","country":"DE","admin1":"06","population":46436},{"key":"germany_staaken","lat":52.53661,"lon":13.15057,"name":"Staaken","nameEn":"Staaken","timezone":"Europe/Berlin","country":"DE","admin1":"16","population":46369},{"key":"germany_buende","lat":52.19837,"lon":8.58644,"name":"Bünde","nameEn":"Bünde","timezone":"Europe/Berlin","country":"DE","admin1":"07","population":46365,"aliases":["Buende"]},{"key":"germany_alsdorf","lat":50.87673,"lon":6.16399,"name":"Alsdorf","nameEn":"Alsdorf","timezone":"Europe/Berlin","country":"DE","admin1":"07","population":46340},{"key":"germany_boeblingen","lat":48.68212,"lon":9.01171,"name":"Böblingen","nameEn":"Böblingen","timezone":"Europe/Berlin","country":"DE","admin1":"01","population":46282,"aliases":["Boeblingen"]},{"key":"germany_langenhorn","lat":53.66667,"lon":10.01667,"name":"Langenhorn","nameEn":"Langenhorn","timezone":"Europe/Berlin","country":"DE","admin1":"04","population":46272},{"key":"germany_rheda_wiedenbrueck","lat":51.84967,"lon":8.30017,"name":"Rheda-Wiedenbrück","nameEn":"Rheda-Wiedenbrück","timezone":"Europe/Berlin","country":"DE","admin1":"07","population":46123,"aliases":["Rheda-Wiedenbrueck"]},{"key":"germany_kamen","lat":51.59231,"lon":7.6638,"name":"Kamen","nameEn":"Kamen","timezone":"Europe/Berlin","country":"DE","admin1":"07","population":45927},{"key":"germany_gohlis","lat":51.366,"lon":12.367,"name":"Gohlis","nameEn":"Gohlis","timezone":"Europe/Berlin","country":"DE","admin1":"13","population":45924},{"key":"germany_hansestadt_stade","lat":53.59407,"lon":9.47302,"name":"Hansestadt Stade","nameEn":"Hansestadt Stade","timezone":"Europe/Berlin","country":"DE","admin1":"06","population":45634},{"key":"germany_meiderich","lat":51.46667,"lon":6.76667,"name":"Meiderich","nameEn":"Meiderich","timezone":"Europe/Berlin","country":"DE","admin1":"07","population":45297},{"key":"germany_wismar","lat":53.89218,"lon":11.45563,"name":"Wismar","nameEn":"Wismar","timezone":"Europe/Berlin","country":"DE","admin1":"12","population":45255},{"key":"germany_amberg","lat":49.44287,"lon":11.86267,"name":"Amberg","nameEn":"Amberg","timezone":"Europe/Berlin","country":"DE","admin1":"02","population":44737},{"key":"germany_neustadt_am_ruebenberge","lat":52.50462,"lon":9.45871,"name":"Neustadt am Rübenberge","nameEn":"Neustadt am Rübenberge","timezone":"Europe/Berlin","country":"DE","admin1":"06","population":44668,"aliases":["Neustadt am Ruebenberge"]},{"key":"germany_erkelenz","lat":51.07947,"lon":6.31531,"name":"Erkelenz","nameEn":"Erkelenz","timezone":"Europe/Berlin","country":"DE","admin1":"07","population":44650},{"key":"germany_homburg","lat":49.32637,"lon":7.33867,"name":"Homburg","nameEn":"Homburg","timezone":"Europe/Berlin","country":"DE","admin1":"09","population":44607},{"key":"germany_straubing","lat":48.88126,"lon":12.57385,"name":"Straubing","nameEn":"Straubing","timezone":"Europe/Berlin","country":"DE","admin1":"02","population":44580},{"key":"germany_halle_neustadt","lat":51.47924,"lon":11.91605,"name":"Halle-Neustadt","nameEn":"Halle-Neustadt","timezone":"Europe/Berlin","country":"DE","admin1":"14","population":44515},{"key":"germany_memmingen","lat":47.98372,"lon":10.18527,"name":"Memmingen","nameEn":"Memmingen","timezone":"Europe/Berlin","country":"DE","admin1":"02","population":44192},{"key":"germany_bruehl","lat":50.82928,"lon":6.90499,"name":"Brühl","nameEn":"Brühl","timezone":"Europe/Berlin","country":"DE","admin1":"07","population":44137,"aliases":["Bruehl"]},{"key":"germany_fellbach","lat":48.80912,"lon":9.27697,"name":"Fellbach","nameEn":"Fellbach","timezone":"Europe/Berlin","country":"DE","admin1":"01","population":43935},{"key":"germany_lehrte","lat":52.37193,"lon":9.97919,"name":"Lehrte","nameEn":"Lehrte","timezone":"Europe/Berlin","country":"DE","admin1":"06","population":43920},{"key":"germany_nordhausen","lat":51.5018,"lon":10.7957,"name":"Nordhausen","nameEn":"Nordhausen","timezone":"Europe/Berlin","country":"DE","admin1":"15","population":43912},{"key":"germany_freiberg","lat":50.91089,"lon":13.33881,"name":"Freiberg","nameEn":"Freiberg","timezone":"Europe/Berlin","country":"DE","admin1":"13","population":43670},{"key":"germany_pirmasens","lat":49.20145,"lon":7.60529,"name":"Pirmasens","nameEn":"Pirmasens","timezone":"Europe/Berlin","country":"DE","admin1":"08","population":43582},{"key":"germany_goslar","lat":51.90425,"lon":10.42766,"name":"Goslar","nameEn":"Goslar","timezone":"Europe/Berlin","country":"DE","admin1":"06","population":43560},{"key":"germany_lankwitz","lat":52.43623,"lon":13.3459,"name":"Lankwitz","nameEn":"Lankwitz","timezone":"Europe/Berlin","country":"DE","admin1":"16","population":43558},{"key":"germany_bietigheim_bissingen","lat":48.94407,"lon":9.11755,"name":"Bietigheim-Bissingen","nameEn":"Bietigheim-Bissingen","timezone":"Europe/Berlin","country":"DE","admin1":"01","population":43556},{"key":"germany_filderstadt","lat":48.65698,"lon":9.22049,"name":"Filderstadt","nameEn":"Filderstadt","timezone":"Europe/Berlin","country":"DE","admin1":"01","population":43550},{"key":"germany_suhl","lat":50.60911,"lon":10.69401,"name":"Suhl","nameEn":"Suhl","timezone":"Europe/Berlin","country":"DE","admin1":"15","population":43509},{"key":"germany_weinheim","lat":49.54887,"lon":8.66697,"name":"Weinheim","nameEn":"Weinheim","timezone":"Europe/Berlin","country":"DE","admin1":"01","population":43325},{"key":"germany_rodgau","lat":50.02627,"lon":8.88588,"name":"Rodgau","nameEn":"Rodgau","timezone":"Europe/Berlin","country":"DE","admin1":"05","population":43315},{"key":"germany_bad_kreuznach","lat":49.8414,"lon":7.86713,"name":"Bad Kreuznach","nameEn":"Bad Kreuznach","timezone":"Europe/Berlin","country":"DE","admin1":"08","population":43213},{"key":"germany_ohligs","lat":51.15,"lon":7,"name":"Ohligs","nameEn":"Ohligs","timezone":"Europe/Berlin","country":"DE","admin1":"07","population":43063},{"key":"germany_monheim_am_rhein","lat":51.09162,"lon":6.89217,"name":"Monheim am Rhein","nameEn":"Monheim am Rhein","timezone":"Europe/Berlin","country":"DE","admin1":"07","population":43038},{"key":"germany_gifhorn","lat":52.47774,"lon":10.5511,"name":"Gifhorn","nameEn":"Gifhorn","timezone":"Europe/Berlin","country":"DE","admin1":"06","population":43000},{"key":"germany_britz","lat":52.44293,"lon":13.43388,"name":"Britz","nameEn":"Britz","timezone":"Europe/Berlin","country":"DE","admin1":"16","population":42846},{"key":"germany_rottenburg","lat":48.47629,"lon":8.93528,"name":"Rottenburg","nameEn":"Rottenburg","timezone":"Europe/Berlin","country":"DE","admin1":"01","population":42721},{"key":"germany_rudow","lat":52.42407,"lon":13.48529,"name":"Rudow","nameEn":"Rudow","timezone":"Europe/Berlin","country":"DE","admin1":"16","population":42631},{"key":"germany_freising","lat":48.40351,"lon":11.74876,"name":"Freising","nameEn":"Freising","timezone":"Europe/Berlin","country":"DE","admin1":"02","population":42570},{"key":"germany_weiden","lat":49.67682,"lon":12.15613,"name":"Weiden","nameEn":"Weiden","timezone":"Europe/Berlin","country":"DE","admin1":"02","population":42550},{"key":"germany_kaufbeuren","lat":47.88238,"lon":10.62192,"name":"Kaufbeuren","nameEn":"Kaufbeuren","timezone":"Europe/Berlin","country":"DE","admin1":"02","population":42505},{"key":"germany_nettetal","lat":51.31667,"lon":6.28333,"name":"Nettetal","nameEn":"Nettetal","timezone":"Europe/Berlin","country":"DE","admin1":"07","population":42417},{"key":"germany_kaarst","lat":51.22929,"lon":6.61883,"name":"Kaarst","nameEn":"Kaarst","timezone":"Europe/Berlin","country":"DE","admin1":"07","population":42112},{"key":"germany_gallus","lat":50.10038,"lon":8.6295,"name":"Gallus","nameEn":"Gallus","timezone":"Europe/Berlin","country":"DE","admin1":"05","population":42012},{"key":"germany_eberswalde","lat":52.83492,"lon":13.81951,"name":"Eberswalde","nameEn":"Eberswalde","timezone":"Europe/Berlin","country":"DE","admin1":"11","population":41980},{"key":"germany_bautzen","lat":51.18035,"lon":14.43494,"name":"Bautzen","nameEn":"Bautzen","timezone":"Europe/Berlin","country":"DE","admin1":"13","population":41972},{"key":"germany_lemgo","lat":52.02786,"lon":8.89901,"name":"Lemgo","nameEn":"Lemgo","timezone":"Europe/Berlin","country":"DE","admin1":"07","population":41943},{"key":"germany_coburg","lat":50.25937,"lon":10.96384,"name":"Coburg","nameEn":"Coburg","timezone":"Europe/Berlin","country":"DE","admin1":"02","population":41901},{"key":"germany_laatzen","lat":52.31506,"lon":9.79739,"name":"Laatzen","nameEn":"Laatzen","timezone":"Europe/Berlin","country":"DE","admin1":"06","population":41838},{"key":"germany_muelheim_2","lat":50.96639,"lon":7.00384,"name":"Mülheim","nameEn":"Mülheim","timezone":"Europe/Berlin","country":"DE","admin1":"07","population":41711,"aliases":["Muelheim"]},{"key":"germany_dreieich","lat":50.01997,"lon":8.69611,"name":"Dreieich","nameEn":"Dreieich","timezone":"Europe/Berlin","country":"DE","admin1":"05","population":41692},{"key":"germany_schorndorf","lat":48.80537,"lon":9.52721,"name":"Schorndorf","nameEn":"Schorndorf","timezone":"Europe/Berlin","country":"DE","admin1":"01","population":41647},{"key":"germany_landau_in_der_pfalz","lat":49.19844,"lon":8.11692,"name":"Landau in der Pfalz","nameEn":"Landau in der Pfalz","timezone":"Europe/Berlin","country":"DE","admin1":"08","population":41612},{"key":"germany_heinsberg","lat":51.06358,"lon":6.0998,"name":"Heinsberg","nameEn":"Heinsberg","timezone":"Europe/Berlin","country":"DE","admin1":"07","population":41505},{"key":"germany_lichtenberg","lat":52.51395,"lon":13.49975,"name":"Lichtenberg","nameEn":"Lichtenberg","timezone":"Europe/Berlin","country":"DE","admin1":"16","population":41359},{"key":"germany_westend","lat":52.51708,"lon":13.27636,"name":"Westend","nameEn":"Westend","timezone":"Europe/Berlin","country":"DE","admin1":"16","population":41328},{"key":"germany_seevetal","lat":53.4,"lon":9.96667,"name":"Seevetal","nameEn":"Seevetal","timezone":"Europe/Berlin","country":"DE","admin1":"06","population":41266},{"key":"germany_wunstorf","lat":52.42377,"lon":9.43585,"name":"Wunstorf","nameEn":"Wunstorf","timezone":"Europe/Berlin","country":"DE","admin1":"06","population":41211},{"key":"germany_leinfelden_echterdingen","lat":48.69406,"lon":9.16809,"name":"Leinfelden-Echterdingen","nameEn":"Leinfelden-Echterdingen","timezone":"Europe/Berlin","country":"DE","admin1":"01","population":41185},{"key":"germany_koenigswinter","lat":50.67734,"lon":7.19245,"name":"Königswinter","nameEn":"Königswinter","timezone":"Europe/Berlin","country":"DE","admin1":"07","population":41164,"aliases":["Koenigswinter"]},{"key":"germany_bensheim","lat":49.68369,"lon":8.61839,"name":"Bensheim","nameEn":"Bensheim","timezone":"Europe/Berlin","country":"DE","admin1":"05","population":41124},{"key":"germany_voelklingen","lat":49.25162,"lon":6.85873,"name":"Völklingen","nameEn":"Völklingen","timezone":"Europe/Berlin","country":"DE","admin1":"09","population":40952,"aliases":["Voelklingen"]},{"key":"germany_germering","lat":48.13392,"lon":11.3765,"name":"Germering","nameEn":"Germering","timezone":"Europe/Berlin","country":"DE","admin1":"02","population":40916},{"key":"germany_niendorf","lat":53.61769,"lon":9.95032,"name":"Niendorf","nameEn":"Niendorf","timezone":"Europe/Berlin","country":"DE","admin1":"04","population":40906},{"key":"germany_borken","lat":51.84382,"lon":6.85774,"name":"Borken","nameEn":"Borken","timezone":"Europe/Berlin","country":"DE","admin1":"07","population":40876},{"key":"germany_buchholz_in_der_nordheide","lat":53.33038,"lon":9.86596,"name":"Buchholz in der Nordheide","nameEn":"Buchholz in der Nordheide","timezone":"Europe/Berlin","country":"DE","admin1":"06","population":40849},{"key":"germany_oranienburg","lat":52.75577,"lon":13.24197,"name":"Oranienburg","nameEn":"Oranienburg","timezone":"Europe/Berlin","country":"DE","admin1":"11","population":40793},{"key":"germany_eisenach","lat":50.9807,"lon":10.31522,"name":"Eisenach","nameEn":"Eisenach","timezone":"Europe/Berlin","country":"DE","admin1":"15","population":40747},{"key":"germany_pinneberg","lat":53.65887,"lon":9.79698,"name":"Pinneberg","nameEn":"Pinneberg","timezone":"Europe/Berlin","country":"DE","admin1":"10","population":40577},{"key":"germany_suedstadt","lat":52.35967,"lon":9.7508,"name":"Südstadt","nameEn":"Südstadt","timezone":"Europe/Berlin","country":"DE","admin1":"06","population":40557,"aliases":["Suedstadt"]},{"key":"germany_wilhelmstadt","lat":52.52379,"lon":13.18916,"name":"Wilhelmstadt","nameEn":"Wilhelmstadt","timezone":"Europe/Berlin","country":"DE","admin1":"16","population":40463},{"key":"germany_pirna","lat":50.95843,"lon":13.93702,"name":"Pirna","nameEn":"Pirna","timezone":"Europe/Berlin","country":"DE","admin1":"13","population":40322},{"key":"germany_aurich","lat":53.46963,"lon":7.48239,"name":"Aurich","nameEn":"Aurich","timezone":"Europe/Berlin","country":"DE","admin1":"06","population":40319},{"key":"germany_barmbek_nord","lat":53.6052,"lon":10.03988,"name":"Barmbek-Nord","nameEn":"Barmbek-Nord","timezone":"Europe/Berlin","country":"DE","admin1":"04","population":40261},{"key":"germany_nurtingen","lat":48.62565,"lon":9.34203,"name":"Nürtingen","nameEn":"Nürtingen","timezone":"Europe/Berlin","country":"DE","admin1":"01","population":40210,"aliases":["Nurtingen"]},{"key":"germany_kirchheim_unter_teck","lat":48.64683,"lon":9.45378,"name":"Kirchheim unter Teck","nameEn":"Kirchheim unter Teck","timezone":"Europe/Berlin","country":"DE","admin1":"01","population":40206},{"key":"germany_buckow","lat":52.42162,"lon":13.43613,"name":"Buckow","nameEn":"Buckow","timezone":"Europe/Berlin","country":"DE","admin1":"16","population":40146},{"key":"germany_maerkisches_viertel","lat":52.59841,"lon":13.35766,"name":"Märkisches Viertel","nameEn":"Märkisches Viertel","timezone":"Europe/Berlin","country":"DE","admin1":"16","population":40119,"aliases":["Maerkisches Viertel"]},{"key":"germany_hueckelhoven","lat":51.0555,"lon":6.22658,"name":"Hückelhoven","nameEn":"Hückelhoven","timezone":"Europe/Berlin","country":"DE","admin1":"07","population":39828,"aliases":["Hueckelhoven"]},{"key":"germany_dachau","lat":48.26,"lon":11.43402,"name":"Dachau","nameEn":"Dachau","timezone":"Europe/Berlin","country":"DE","admin1":"02","population":39740},{"key":"germany_halberstadt","lat":51.89562,"lon":11.05622,"name":"Halberstadt","nameEn":"Halberstadt","timezone":"Europe/Berlin","country":"DE","admin1":"14","population":39729},{"key":"germany_spandau","lat":52.5511,"lon":13.19921,"name":"Spandau","nameEn":"Spandau","timezone":"Europe/Berlin","country":"DE","admin1":"16","population":39653},{"key":"germany_kehl","lat":48.57297,"lon":7.81523,"name":"Kehl","nameEn":"Kehl","timezone":"Europe/Berlin","country":"DE","admin1":"01","population":39584},{"key":"germany_neumarkt_in_der_oberpfalz","lat":49.28028,"lon":11.46278,"name":"Neumarkt in der Oberpfalz","nameEn":"Neumarkt in der Oberpfalz","timezone":"Europe/Berlin","country":"DE","admin1":"02","population":39557},{"key":"germany_mettmann","lat":51.2504,"lon":6.97536,"name":"Mettmann","nameEn":"Mettmann","timezone":"Europe/Berlin","country":"DE","admin1":"07","population":39550},{"key":"germany_loehne","lat":52.18848,"lon":8.6922,"name":"Löhne","nameEn":"Löhne","timezone":"Europe/Berlin","country":"DE","admin1":"07","population":39521,"aliases":["Loehne"]},{"key":"germany_kamp_lintfort","lat":51.50467,"lon":6.54587,"name":"Kamp-Lintfort","nameEn":"Kamp-Lintfort","timezone":"Europe/Berlin","country":"DE","admin1":"07","population":39490},{"key":"germany_freital","lat":51.00166,"lon":13.6488,"name":"Freital","nameEn":"Freital","timezone":"Europe/Berlin","country":"DE","admin1":"13","population":39281},{"key":"germany_siegburg","lat":50.80019,"lon":7.20769,"name":"Siegburg","nameEn":"Siegburg","timezone":"Europe/Berlin","country":"DE","admin1":"07","population":39135},{"key":"germany_maintal","lat":50.15,"lon":8.83333,"name":"Maintal","nameEn":"Maintal","timezone":"Europe/Berlin","country":"DE","admin1":"05","population":38987},{"key":"germany_ilmenau","lat":50.68322,"lon":10.91858,"name":"Ilmenau","nameEn":"Ilmenau","timezone":"Europe/Berlin","country":"DE","admin1":"15","population":38834},{"key":"germany_backnang","lat":48.94743,"lon":9.43718,"name":"Backnang","nameEn":"Backnang","timezone":"Europe/Berlin","country":"DE","admin1":"01","population":38818},{"key":"germany_langen","lat":49.98955,"lon":8.66852,"name":"Langen","nameEn":"Langen","timezone":"Europe/Berlin","country":"DE","admin1":"05","population":38785},{"key":"germany_biebrich","lat":50.0415,"lon":8.24878,"name":"Biebrich","nameEn":"Biebrich","timezone":"Europe/Berlin","country":"DE","admin1":"05","population":38758},{"key":"germany_warendorf","lat":51.95109,"lon":7.98756,"name":"Warendorf","nameEn":"Warendorf","timezone":"Europe/Berlin","country":"DE","admin1":"07","population":38707},{"key":"germany_sankt_ingbert","lat":49.27697,"lon":7.11672,"name":"Sankt Ingbert","nameEn":"Sankt Ingbert","timezone":"Europe/Berlin","country":"DE","admin1":"09","population":38697},{"key":"germany_falkenhagener_feld","lat":52.55191,"lon":13.16802,"name":"Falkenhagener Feld","nameEn":"Falkenhagener Feld","timezone":"Europe/Berlin","country":"DE","admin1":"16","population":38667},{"key":"germany_ettlingen","lat":48.94094,"lon":8.40763,"name":"Ettlingen","nameEn":"Ettlingen","timezone":"Europe/Berlin","country":"DE","admin1":"01","population":38578},{"key":"germany_altenburg","lat":50.98763,"lon":12.43684,"name":"Altenburg","nameEn":"Altenburg","timezone":"Europe/Berlin","country":"DE","admin1":"15","population":38568},{"key":"germany_schwabach","lat":49.33047,"lon":11.02346,"name":"Schwabach","nameEn":"Schwabach","timezone":"Europe/Berlin","country":"DE","admin1":"02","population":38554},{"key":"germany_leuben","lat":51.01122,"lon":13.82029,"name":"Leuben","nameEn":"Leuben","timezone":"Europe/Berlin","country":"DE","admin1":"13","population":38353},{"key":"germany_saarlouis","lat":49.31366,"lon":6.75154,"name":"Saarlouis","nameEn":"Saarlouis","timezone":"Europe/Berlin","country":"DE","admin1":"09","population":38333},{"key":"germany_linden","lat":52.36449,"lon":9.71157,"name":"Linden","nameEn":"Linden","timezone":"Europe/Berlin","country":"DE","admin1":"06","population":38284},{"key":"germany_buxtehude","lat":53.46994,"lon":9.68968,"name":"Buxtehude","nameEn":"Buxtehude","timezone":"Europe/Berlin","country":"DE","admin1":"06","population":38192},{"key":"germany_ahaus","lat":52.07936,"lon":7.01344,"name":"Ahaus","nameEn":"Ahaus","timezone":"Europe/Berlin","country":"DE","admin1":"07","population":38165},{"key":"germany_haltern_am_see","lat":51.74297,"lon":7.18163,"name":"Haltern am See","nameEn":"Haltern am See","timezone":"Europe/Berlin","country":"DE","admin1":"07","population":38142},{"key":"germany_muehlhausen","lat":51.20896,"lon":10.45275,"name":"Mühlhausen","nameEn":"Mühlhausen","timezone":"Europe/Berlin","country":"DE","admin1":"15","population":38108,"aliases":["Muehlhausen"]},{"key":"germany_hamm_2","lat":53.55487,"lon":10.05742,"name":"Hamm","nameEn":"Hamm","timezone":"Europe/Berlin","country":"DE","admin1":"04","population":37989},{"key":"germany_neustadt_sued","lat":50.92509,"lon":6.94762,"name":"Neustadt/Süd","nameEn":"Neustadt/Süd","timezone":"Europe/Berlin","country":"DE","admin1":"07","population":37939,"aliases":["Neustadt/Sued"]},{"key":"germany_weissenfels","lat":51.20148,"lon":11.96843,"name":"Weißenfels","nameEn":"Weißenfels","timezone":"Europe/Berlin","country":"DE","admin1":"14","population":37929,"aliases":["Weissenfels"]},{"key":"germany_horn","lat":53.55406,"lon":10.08989,"name":"Horn","nameEn":"Horn","timezone":"Europe/Berlin","country":"DE","admin1":"04","population":37903},{"key":"germany_beckum","lat":51.75571,"lon":8.04075,"name":"Beckum","nameEn":"Beckum","timezone":"Europe/Berlin","country":"DE","admin1":"07","population":37814},{"key":"germany_hofheim_am_taunus","lat":50.09019,"lon":8.4493,"name":"Hofheim am Taunus","nameEn":"Hofheim am Taunus","timezone":"Europe/Berlin","country":"DE","admin1":"05","population":37750},{"key":"germany_stendal","lat":52.6069,"lon":11.85867,"name":"Stendal","nameEn":"Stendal","timezone":"Europe/Berlin","country":"DE","admin1":"14","population":37722},{"key":"germany_gropiusstadt","lat":52.42686,"lon":13.46053,"name":"Gropiusstadt","nameEn":"Gropiusstadt","timezone":"Europe/Berlin","country":"DE","admin1":"16","population":37686},{"key":"germany_hemer","lat":51.38707,"lon":7.77019,"name":"Hemer","nameEn":"Hemer","timezone":"Europe/Berlin","country":"DE","admin1":"07","population":37502},{"key":"germany_falkensee","lat":52.56014,"lon":13.0927,"name":"Falkensee","nameEn":"Falkensee","timezone":"Europe/Berlin","country":"DE","admin1":"11","population":37468},{"key":"germany_wuerselen","lat":50.81809,"lon":6.1347,"name":"Würselen","nameEn":"Würselen","timezone":"Europe/Berlin","country":"DE","admin1":"07","population":37074,"aliases":["Wuerselen"]},{"key":"germany_sinsheim","lat":49.2529,"lon":8.87867,"name":"Sinsheim","nameEn":"Sinsheim","timezone":"Europe/Berlin","country":"DE","admin1":"01","population":37036},{"key":"germany_wermelskirchen","lat":51.1397,"lon":7.21583,"name":"Wermelskirchen","nameEn":"Wermelskirchen","timezone":"Europe/Berlin","country":"DE","admin1":"07","population":36816},{"key":"germany_tegel","lat":52.57601,"lon":13.29389,"name":"Tegel","nameEn":"Tegel","timezone":"Europe/Berlin","country":"DE","admin1":"16","population":36764},{"key":"germany_coesfeld","lat":51.94349,"lon":7.16809,"name":"Coesfeld","nameEn":"Coesfeld","timezone":"Europe/Berlin","country":"DE","admin1":"07","population":36631},{"key":"germany_bitterfeld_wolfen","lat":51.62355,"lon":12.32395,"name":"Bitterfeld-Wolfen","nameEn":"Bitterfeld-Wolfen","timezone":"Europe/Berlin","country":"DE","admin1":"14","population":36592},{"key":"germany_schwaebisch_hall","lat":49.11127,"lon":9.73908,"name":"Schwäbisch Hall","nameEn":"Schwäbisch Hall","timezone":"Europe/Berlin","country":"DE","admin1":"01","population":36543,"aliases":["Schwaebisch Hall"]},{"key":"germany_lurup","lat":53.59266,"lon":9.87697,"name":"Lurup","nameEn":"Lurup","timezone":"Europe/Berlin","country":"DE","admin1":"04","population":36521},{"key":"germany_niederkassel","lat":50.81503,"lon":7.03777,"name":"Niederkassel","nameEn":"Niederkassel","timezone":"Europe/Berlin","country":"DE","admin1":"07","population":36480},{"key":"germany_porta_westfalica","lat":52.22961,"lon":8.91612,"name":"Porta Westfalica","nameEn":"Porta Westfalica","timezone":"Europe/Berlin","country":"DE","admin1":"07","population":36364},{"key":"germany_datteln","lat":51.65598,"lon":7.3453,"name":"Datteln","nameEn":"Datteln","timezone":"Europe/Berlin","country":"DE","admin1":"07","population":36338},{"key":"germany_bad_vilbel","lat":50.17866,"lon":8.73756,"name":"Bad Vilbel","nameEn":"Bad Vilbel","timezone":"Europe/Berlin","country":"DE","admin1":"05","population":35961},{"key":"germany_barmbek_sued","lat":53.58007,"lon":10.04067,"name":"Barmbek-Süd","nameEn":"Barmbek-Süd","timezone":"Europe/Berlin","country":"DE","admin1":"04","population":35880,"aliases":["Barmbek-Sued"]},{"key":"germany_crailsheim","lat":49.13444,"lon":10.07193,"name":"Crailsheim","nameEn":"Crailsheim","timezone":"Europe/Berlin","country":"DE","admin1":"01","population":35755},{"key":"germany_pasing","lat":48.14146,"lon":11.45599,"name":"Pasing","nameEn":"Pasing","timezone":"Europe/Berlin","country":"DE","admin1":"02","population":35728},{"key":"germany_wesseling","lat":50.82709,"lon":6.9747,"name":"Wesseling","nameEn":"Wesseling","timezone":"Europe/Berlin","country":"DE","admin1":"07","population":35665},{"key":"germany_voerde","lat":51.59703,"lon":6.6863,"name":"Voerde","nameEn":"Voerde","timezone":"Europe/Berlin","country":"DE","admin1":"07","population":35661},{"key":"germany_emsdetten","lat":52.1734,"lon":7.52781,"name":"Emsdetten","nameEn":"Emsdetten","timezone":"Europe/Berlin","country":"DE","admin1":"07","population":35582},{"key":"germany_farmsen_berne","lat":53.60639,"lon":10.11972,"name":"Farmsen-Berne","nameEn":"Farmsen-Berne","timezone":"Europe/Berlin","country":"DE","admin1":"04","population":35477},{"key":"germany_neu_isenburg","lat":50.04832,"lon":8.69406,"name":"Neu-Isenburg","nameEn":"Neu-Isenburg","timezone":"Europe/Berlin","country":"DE","admin1":"05","population":35293},{"key":"germany_zweibruecken","lat":49.24686,"lon":7.36977,"name":"Zweibrücken","nameEn":"Zweibrücken","timezone":"Europe/Berlin","country":"DE","admin1":"08","population":35221,"aliases":["Zweibruecken"]},{"key":"germany_ottensen","lat":53.55686,"lon":9.91835,"name":"Ottensen","nameEn":"Ottensen","timezone":"Europe/Berlin","country":"DE","admin1":"04","population":35136},{"key":"germany_greven","lat":52.09364,"lon":7.59396,"name":"Greven","nameEn":"Greven","timezone":"Europe/Berlin","country":"DE","admin1":"07","population":35080},{"key":"germany_eidelstedt","lat":53.60697,"lon":9.90538,"name":"Eidelstedt","nameEn":"Eidelstedt","timezone":"Europe/Berlin","country":"DE","admin1":"04","population":35078},{"key":"germany_lage","lat":51.99223,"lon":8.79301,"name":"Lage","nameEn":"Lage","timezone":"Europe/Berlin","country":"DE","admin1":"07","population":35054},{"key":"germany_bonn_hardtberg","lat":50.704,"lon":7.054,"name":"Bonn Hardtberg","nameEn":"Bonn Hardtberg","timezone":"Europe/Berlin","country":"DE","admin1":"07","population":35000},{"key":"germany_uelzen","lat":52.96449,"lon":10.56704,"name":"Uelzen","nameEn":"Uelzen","timezone":"Europe/Berlin","country":"DE","admin1":"06","population":34996},{"key":"germany_wedel","lat":53.58374,"lon":9.69835,"name":"Wedel","nameEn":"Wedel","timezone":"Europe/Berlin","country":"DE","admin1":"10","population":34912},{"key":"germany_bernau_bei_berlin","lat":52.67982,"lon":13.58708,"name":"Bernau bei Berlin","nameEn":"Bernau bei Berlin","timezone":"Europe/Berlin","country":"DE","admin1":"11","population":34866},{"key":"germany_tuttlingen","lat":47.98464,"lon":8.8177,"name":"Tuttlingen","nameEn":"Tuttlingen","timezone":"Europe/Berlin","country":"DE","admin1":"01","population":34847},{"key":"germany_merseburg","lat":51.35478,"lon":11.98923,"name":"Merseburg","nameEn":"Merseburg","timezone":"Europe/Berlin","country":"DE","admin1":"14","population":34780},{"key":"germany_vegesack","lat":53.17923,"lon":8.62228,"name":"Vegesack","nameEn":"Vegesack","timezone":"Europe/Berlin","country":"DE","admin1":"03","population":34757},{"key":"germany_rheinfelden","lat":47.56013,"lon":7.78715,"name":"Rheinfelden","nameEn":"Rheinfelden","timezone":"Europe/Berlin","country":"DE","admin1":"01","population":34674},{"key":"germany_steinfurt","lat":52.15045,"lon":7.33664,"name":"Steinfurt","nameEn":"Steinfurt","timezone":"Europe/Berlin","country":"DE","admin1":"07","population":34601},{"key":"germany_balingen","lat":48.27525,"lon":8.85464,"name":"Balingen","nameEn":"Balingen","timezone":"Europe/Berlin","country":"DE","admin1":"01","population":34414},{"key":"germany_seelze","lat":52.39635,"lon":9.59727,"name":"Seelze","nameEn":"Seelze","timezone":"Europe/Berlin","country":"DE","admin1":"06","population":34364},{"key":"germany_meppen","lat":52.69064,"lon":7.29097,"name":"Meppen","nameEn":"Meppen","timezone":"Europe/Berlin","country":"DE","admin1":"06","population":34198},{"key":"germany_herrenberg","lat":48.59523,"lon":8.86648,"name":"Herrenberg","nameEn":"Herrenberg","timezone":"Europe/Berlin","country":"DE","admin1":"01","population":34192},{"key":"germany_papenburg","lat":53.07769,"lon":7.41516,"name":"Papenburg","nameEn":"Papenburg","timezone":"Europe/Berlin","country":"DE","admin1":"06","population":34117},{"key":"germany_kempen","lat":51.36432,"lon":6.41858,"name":"Kempen","nameEn":"Kempen","timezone":"Europe/Berlin","country":"DE","admin1":"07","population":34105},{"key":"germany_geldern","lat":51.51908,"lon":6.32363,"name":"Geldern","nameEn":"Geldern","timezone":"Europe/Berlin","country":"DE","admin1":"07","population":34013},{"key":"germany_kornwestheim","lat":48.86158,"lon":9.18569,"name":"Kornwestheim","nameEn":"Kornwestheim","timezone":"Europe/Berlin","country":"DE","admin1":"01","population":33980},{"key":"germany_juelich","lat":50.92149,"lon":6.36267,"name":"Jülich","nameEn":"Jülich","timezone":"Europe/Berlin","country":"DE","admin1":"07","population":33911,"aliases":["Juelich"]},{"key":"germany_leer","lat":53.23157,"lon":7.461,"name":"Leer","nameEn":"Leer","timezone":"Europe/Berlin","country":"DE","admin1":"06","population":33886},{"key":"germany_limburg_an_der_lahn","lat":50.3836,"lon":8.0503,"name":"Limburg an der Lahn","nameEn":"Limburg an der Lahn","timezone":"Europe/Berlin","country":"DE","admin1":"05","population":33820},{"key":"germany_fennpfuhl","lat":52.52921,"lon":13.47267,"name":"Fennpfuhl","nameEn":"Fennpfuhl","timezone":"Europe/Berlin","country":"DE","admin1":"16","population":33751},{"key":"germany_schwedt_oder","lat":53.05963,"lon":14.28154,"name":"Schwedt (Oder)","nameEn":"Schwedt (Oder)","timezone":"Europe/Berlin","country":"DE","admin1":"11","population":33730},{"key":"germany_goch","lat":51.67873,"lon":6.15895,"name":"Goch","nameEn":"Goch","timezone":"Europe/Berlin","country":"DE","admin1":"07","population":33706},{"key":"germany_ostfildern","lat":48.72704,"lon":9.24954,"name":"Ostfildern","nameEn":"Ostfildern","timezone":"Europe/Berlin","country":"DE","admin1":"01","population":33598},{"key":"germany_fuerstenwalde","lat":52.36067,"lon":14.06185,"name":"Fürstenwalde","nameEn":"Fürstenwalde","timezone":"Europe/Berlin","country":"DE","admin1":"11","population":33539,"aliases":["Fuerstenwalde"]},{"key":"germany_fuerstenfeldbruck","lat":48.17904,"lon":11.2547,"name":"Fürstenfeldbruck","nameEn":"Fürstenfeldbruck","timezone":"Europe/Berlin","country":"DE","admin1":"02","population":33533,"aliases":["Fuerstenfeldbruck"]},{"key":"germany_erding","lat":48.30603,"lon":11.90686,"name":"Erding","nameEn":"Erding","timezone":"Europe/Berlin","country":"DE","admin1":"02","population":33519},{"key":"germany_korschenbroich","lat":51.19139,"lon":6.51352,"name":"Korschenbroich","nameEn":"Korschenbroich","timezone":"Europe/Berlin","country":"DE","admin1":"07","population":33406},{"key":"germany_dietzenbach","lat":50.00976,"lon":8.77783,"name":"Dietzenbach","nameEn":"Dietzenbach","timezone":"Europe/Berlin","country":"DE","admin1":"05","population":33256},{"key":"germany_itzehoe","lat":53.92099,"lon":9.51529,"name":"Itzehoe","nameEn":"Itzehoe","timezone":"Europe/Berlin","country":"DE","admin1":"10","population":33047},{"key":"germany_burglesum","lat":53.16532,"lon":8.68873,"name":"Burglesum","nameEn":"Burglesum","timezone":"Europe/Berlin","country":"DE","admin1":"03","population":33000},{"key":"germany_radebeul","lat":51.10654,"lon":13.66047,"name":"Radebeul","nameEn":"Radebeul","timezone":"Europe/Berlin","country":"DE","admin1":"13","population":32979},{"key":"germany_buer","lat":51.5774,"lon":7.0518,"name":"Buer","nameEn":"Buer","timezone":"Europe/Berlin","country":"DE","admin1":"07","population":32919},{"key":"germany_achim","lat":53.01416,"lon":9.0263,"name":"Achim","nameEn":"Achim","timezone":"Europe/Berlin","country":"DE","admin1":"06","population":32870},{"key":"germany_moerfelden_walldorf","lat":49.99472,"lon":8.58361,"name":"Mörfelden-Walldorf","nameEn":"Mörfelden-Walldorf","timezone":"Europe/Berlin","country":"DE","admin1":"05","population":32753,"aliases":["Moerfelden-Walldorf"]},{"key":"germany_hoexter","lat":51.77501,"lon":9.38155,"name":"Höxter","nameEn":"Höxter","timezone":"Europe/Berlin","country":"DE","admin1":"07","population":32713,"aliases":["Hoexter"]},{"key":"germany_gevelsberg","lat":51.31971,"lon":7.3392,"name":"Gevelsberg","nameEn":"Gevelsberg","timezone":"Europe/Berlin","country":"DE","admin1":"07","population":32664},{"key":"germany_winsen","lat":53.35777,"lon":10.21161,"name":"Winsen","nameEn":"Winsen","timezone":"Europe/Berlin","country":"DE","admin1":"06","population":32662},{"key":"germany_nienburg","lat":52.64437,"lon":9.21658,"name":"Nienburg","nameEn":"Nienburg","timezone":"Europe/Berlin","country":"DE","admin1":"06","population":32629},{"key":"germany_viernheim","lat":49.54033,"lon":8.5782,"name":"Viernheim","nameEn":"Viernheim","timezone":"Europe/Berlin","country":"DE","admin1":"05","population":32620},{"key":"germany_ennepetal","lat":51.29848,"lon":7.3629,"name":"Ennepetal","nameEn":"Ennepetal","timezone":"Europe/Berlin","country":"DE","admin1":"07","population":32607},{"key":"germany_koenigs_wusterhausen","lat":52.30141,"lon":13.633,"name":"Königs Wusterhausen","nameEn":"Königs Wusterhausen","timezone":"Europe/Berlin","country":"DE","admin1":"11","population":32513,"aliases":["Koenigs Wusterhausen"]},{"key":"germany_stuhr","lat":53.03333,"lon":8.75,"name":"Stuhr","nameEn":"Stuhr","timezone":"Europe/Berlin","country":"DE","admin1":"06","population":32507},{"key":"germany_lampertheim","lat":49.59786,"lon":8.4725,"name":"Lampertheim","nameEn":"Lampertheim","timezone":"Europe/Berlin","country":"DE","admin1":"05","population":32400},{"key":"germany_biberach_an_der_riss","lat":48.09345,"lon":9.79053,"name":"Biberach an der Riß","nameEn":"Biberach an der Riß","timezone":"Europe/Berlin","country":"DE","admin1":"01","population":32333,"aliases":["Biberach an der Riss"]},{"key":"germany_marienfelde","lat":52.41868,"lon":13.36723,"name":"Marienfelde","nameEn":"Marienfelde","timezone":"Europe/Berlin","country":"DE","admin1":"16","population":32270},{"key":"germany_weil_am_rhein","lat":47.59331,"lon":7.62082,"name":"Weil am Rhein","nameEn":"Weil am Rhein","timezone":"Europe/Berlin","country":"DE","admin1":"01","population":32236},{"key":"germany_meschede","lat":51.3502,"lon":8.28332,"name":"Meschede","nameEn":"Meschede","timezone":"Europe/Berlin","country":"DE","admin1":"07","population":32224},{"key":"germany_rheinberg","lat":51.54649,"lon":6.59525,"name":"Rheinberg","nameEn":"Rheinberg","timezone":"Europe/Berlin","country":"DE","admin1":"07","population":32188},{"key":"germany_wernigerode","lat":51.83652,"lon":10.78216,"name":"Wernigerode","nameEn":"Wernigerode","timezone":"Europe/Berlin","country":"DE","admin1":"14","population":32167},{"key":"germany_werl","lat":51.55493,"lon":7.91403,"name":"Werl","nameEn":"Werl","timezone":"Europe/Berlin","country":"DE","admin1":"07","population":32149},{"key":"germany_bernburg","lat":51.79464,"lon":11.7401,"name":"Bernburg","nameEn":"Bernburg","timezone":"Europe/Berlin","country":"DE","admin1":"14","population":32113},{"key":"germany_neugraben_fischbek","lat":53.46579,"lon":9.84344,"name":"Neugraben-Fischbek","nameEn":"Neugraben-Fischbek","timezone":"Europe/Berlin","country":"DE","admin1":"04","population":32054},{"key":"germany_eisenhuettenstadt","lat":52.15,"lon":14.65,"name":"Eisenhüttenstadt","nameEn":"Eisenhüttenstadt","timezone":"Europe/Berlin","country":"DE","admin1":"11","population":32052,"aliases":["Eisenhuettenstadt"]},{"key":"germany_langendreer","lat":51.46023,"lon":7.32584,"name":"Langendreer","nameEn":"Langendreer","timezone":"Europe/Berlin","country":"DE","admin1":"07","population":32047},{"key":"germany_niederschoenhausen","lat":52.58483,"lon":13.40272,"name":"Niederschönhausen","nameEn":"Niederschönhausen","timezone":"Europe/Berlin","country":"DE","admin1":"16","population":32037,"aliases":["Niederschoenhausen"]},{"key":"germany_neuruppin","lat":52.92815,"lon":12.80311,"name":"Neuruppin","nameEn":"Neuruppin","timezone":"Europe/Berlin","country":"DE","admin1":"11","population":31901},{"key":"germany_ansbach","lat":49.30481,"lon":10.5931,"name":"Ansbach","nameEn":"Ansbach","timezone":"Europe/Berlin","country":"DE","admin1":"02","population":31839},{"key":"germany_emmerich","lat":51.83933,"lon":6.24792,"name":"Emmerich","nameEn":"Emmerich","timezone":"Europe/Berlin","country":"DE","admin1":"07","population":31829},{"key":"germany_kreuztal","lat":50.96775,"lon":7.98848,"name":"Kreuztal","nameEn":"Kreuztal","timezone":"Europe/Berlin","country":"DE","admin1":"07","population":31772},{"key":"germany_radolfzell","lat":47.74194,"lon":8.97098,"name":"Radolfzell","nameEn":"Radolfzell","timezone":"Europe/Berlin","country":"DE","admin1":"01","population":31734},{"key":"germany_osterholz_scharmbeck","lat":53.22659,"lon":8.7923,"name":"Osterholz-Scharmbeck","nameEn":"Osterholz-Scharmbeck","timezone":"Europe/Berlin","country":"DE","admin1":"06","population":31405},{"key":"germany_lohmar","lat":50.83868,"lon":7.21399,"name":"Lohmar","nameEn":"Lohmar","timezone":"Europe/Berlin","country":"DE","admin1":"07","population":31339},{"key":"germany_hakenfelde","lat":52.55877,"lon":13.20831,"name":"Hakenfelde","nameEn":"Hakenfelde","timezone":"Europe/Berlin","country":"DE","admin1":"16","population":31327},{"key":"germany_georgsmarienhuette","lat":52.20296,"lon":8.0448,"name":"Georgsmarienhütte","nameEn":"Georgsmarienhütte","timezone":"Europe/Berlin","country":"DE","admin1":"06","population":31244,"aliases":["Georgsmarienhuette"]},{"key":"germany_guestrow","lat":53.7972,"lon":12.17337,"name":"Güstrow","nameEn":"Güstrow","timezone":"Europe/Berlin","country":"DE","admin1":"12","population":31217,"aliases":["Guestrow"]},{"key":"germany_cloppenburg","lat":52.84755,"lon":8.04745,"name":"Cloppenburg","nameEn":"Cloppenburg","timezone":"Europe/Berlin","country":"DE","admin1":"06","population":31177},{"key":"germany_ganderkesee","lat":53.03616,"lon":8.54514,"name":"Ganderkesee","nameEn":"Ganderkesee","timezone":"Europe/Berlin","country":"DE","admin1":"06","population":31141},{"key":"germany_merzig","lat":49.44331,"lon":6.63874,"name":"Merzig","nameEn":"Merzig","timezone":"Europe/Berlin","country":"DE","admin1":"09","population":31118},{"key":"germany_deggendorf","lat":48.84085,"lon":12.96068,"name":"Deggendorf","nameEn":"Deggendorf","timezone":"Europe/Berlin","country":"DE","admin1":"02","population":31081},{"key":"germany_burgdorf","lat":52.44628,"lon":10.0064,"name":"Burgdorf","nameEn":"Burgdorf","timezone":"Europe/Berlin","country":"DE","admin1":"06","population":31051},{"key":"germany_northeim","lat":51.70662,"lon":9.99997,"name":"Northeim","nameEn":"Northeim","timezone":"Europe/Berlin","country":"DE","admin1":"06","population":30894},{"key":"germany_werne","lat":51.66446,"lon":7.63421,"name":"Werne","nameEn":"Werne","timezone":"Europe/Berlin","country":"DE","admin1":"07","population":30810},{"key":"germany_hoyerswerda","lat":51.43787,"lon":14.23549,"name":"Hoyerswerda","nameEn":"Hoyerswerda","timezone":"Europe/Berlin","country":"DE","admin1":"13","population":30759},{"key":"germany_bad_hersfeld","lat":50.87197,"lon":9.70891,"name":"Bad Hersfeld","nameEn":"Bad Hersfeld","timezone":"Europe/Berlin","country":"DE","admin1":"05","population":30725},{"key":"germany_forchheim","lat":49.71754,"lon":11.05877,"name":"Forchheim","nameEn":"Forchheim","timezone":"Europe/Berlin","country":"DE","admin1":"02","population":30442},{"key":"germany_schoenebeck","lat":52.01682,"lon":11.7307,"name":"Schönebeck","nameEn":"Schönebeck","timezone":"Europe/Berlin","country":"DE","admin1":"14","population":30419,"aliases":["Schoenebeck"]},{"key":"germany_oer_erkenschwick","lat":51.64198,"lon":7.26451,"name":"Oer-Erkenschwick","nameEn":"Oer-Erkenschwick","timezone":"Europe/Berlin","country":"DE","admin1":"07","population":30409},{"key":"germany_andernach","lat":50.43109,"lon":7.40425,"name":"Andernach","nameEn":"Andernach","timezone":"Europe/Berlin","country":"DE","admin1":"08","population":30408},{"key":"germany_toenisvorst","lat":51.32092,"lon":6.49412,"name":"Tönisvorst","nameEn":"Tönisvorst","timezone":"Europe/Berlin","country":"DE","admin1":"07","population":30296,"aliases":["Toenisvorst"]},{"key":"germany_bad_nauheim","lat":50.36463,"lon":8.73859,"name":"Bad Nauheim","nameEn":"Bad Nauheim","timezone":"Europe/Berlin","country":"DE","admin1":"05","population":30291},{"key":"germany_bretten","lat":49.03685,"lon":8.70745,"name":"Bretten","nameEn":"Bretten","timezone":"Europe/Berlin","country":"DE","admin1":"01","population":30274},{"key":"germany_schwelm","lat":51.28635,"lon":7.29388,"name":"Schwelm","nameEn":"Schwelm","timezone":"Europe/Berlin","country":"DE","admin1":"07","population":30235},{"key":"germany_waltrop","lat":51.62125,"lon":7.40238,"name":"Waltrop","nameEn":"Waltrop","timezone":"Europe/Berlin","country":"DE","admin1":"07","population":30220},{"key":"germany_taunusstein","lat":50.14993,"lon":8.15206,"name":"Taunusstein","nameEn":"Taunusstein","timezone":"Europe/Berlin","country":"DE","admin1":"05","population":30145},{"key":"germany_ahrensburg","lat":53.67661,"lon":10.23705,"name":"Ahrensburg","nameEn":"Ahrensburg","timezone":"Europe/Berlin","country":"DE","admin1":"10","population":30103},{"key":"germany_schnelsen","lat":53.63738,"lon":9.91973,"name":"Schnelsen","nameEn":"Schnelsen","timezone":"Europe/Berlin","country":"DE","admin1":"04","population":30100},{"key":"germany_rietberg","lat":51.80924,"lon":8.42841,"name":"Rietberg","nameEn":"Rietberg","timezone":"Europe/Berlin","country":"DE","admin1":"07","population":30055},{"key":"germany_wittenberg","lat":51.8661,"lon":12.64973,"name":"Wittenberg","nameEn":"Wittenberg","timezone":"Europe/Berlin","country":"DE","admin1":"14","population":30000},{"key":"germany_friedberg","lat":48.35693,"lon":10.98461,"name":"Friedberg","nameEn":"Friedberg","timezone":"Europe/Berlin","country":"DE","admin1":"02","population":29953},{"key":"germany_delbrueck","lat":51.76503,"lon":8.56223,"name":"Delbrück","nameEn":"Delbrück","timezone":"Europe/Berlin","country":"DE","admin1":"07","population":29884,"aliases":["Delbrueck"]},{"key":"germany_winnenden","lat":48.87563,"lon":9.39819,"name":"Winnenden","nameEn":"Winnenden","timezone":"Europe/Berlin","country":"DE","admin1":"01","population":29876},{"key":"germany_springe","lat":52.20845,"lon":9.55416,"name":"Springe","nameEn":"Springe","timezone":"Europe/Berlin","country":"DE","admin1":"06","population":29828},{"key":"germany_mahlsdorf","lat":52.50935,"lon":13.61373,"name":"Mahlsdorf","nameEn":"Mahlsdorf","timezone":"Europe/Berlin","country":"DE","admin1":"16","population":29757},{"key":"germany_einbeck","lat":51.82018,"lon":9.86961,"name":"Einbeck","nameEn":"Einbeck","timezone":"Europe/Berlin","country":"DE","admin1":"06","population":29751},{"key":"germany_vechta","lat":52.73064,"lon":8.28968,"name":"Vechta","nameEn":"Vechta","timezone":"Europe/Berlin","country":"DE","admin1":"06","population":29729},{"key":"germany_naumburg","lat":51.14987,"lon":11.80979,"name":"Naumburg","nameEn":"Naumburg","timezone":"Europe/Berlin","country":"DE","admin1":"14","population":29722},{"key":"germany_altglienicke","lat":52.41116,"lon":13.5355,"name":"Altglienicke","nameEn":"Altglienicke","timezone":"Europe/Berlin","country":"DE","admin1":"16","population":29595},{"key":"germany_gaggenau","lat":48.8,"lon":8.33333,"name":"Gaggenau","nameEn":"Gaggenau","timezone":"Europe/Berlin","country":"DE","admin1":"01","population":29529},{"key":"germany_geesthacht","lat":53.4366,"lon":10.37339,"name":"Geesthacht","nameEn":"Geesthacht","timezone":"Europe/Berlin","country":"DE","admin1":"10","population":29487},{"key":"germany_altona_altstadt","lat":53.55018,"lon":9.94653,"name":"Altona-Altstadt","nameEn":"Altona-Altstadt","timezone":"Europe/Berlin","country":"DE","admin1":"04","population":29455},{"key":"germany_haan","lat":51.19382,"lon":7.0133,"name":"Haan","nameEn":"Haan","timezone":"Europe/Berlin","country":"DE","admin1":"07","population":29431},{"key":"germany_riesa","lat":51.30777,"lon":13.29168,"name":"Riesa","nameEn":"Riesa","timezone":"Europe/Berlin","country":"DE","admin1":"13","population":29373},{"key":"germany_oelde","lat":51.8289,"lon":8.14724,"name":"Oelde","nameEn":"Oelde","timezone":"Europe/Berlin","country":"DE","admin1":"07","population":29297},{"key":"germany_idar_oberstein","lat":49.71443,"lon":7.30776,"name":"Idar-Oberstein","nameEn":"Idar-Oberstein","timezone":"Europe/Berlin","country":"DE","admin1":"08","population":29158},{"key":"germany_wetter","lat":51.38747,"lon":7.39277,"name":"Wetter","nameEn":"Wetter","timezone":"Europe/Berlin","country":"DE","admin1":"07","population":29146},{"key":"germany_blankenfelde_mahlow","lat":52.33645,"lon":13.41316,"name":"Blankenfelde-Mahlow","nameEn":"Blankenfelde-Mahlow","timezone":"Europe/Berlin","country":"DE","admin1":"11","population":29129},{"key":"germany_senftenberg","lat":51.52517,"lon":14.00164,"name":"Senftenberg","nameEn":"Senftenberg","timezone":"Europe/Berlin","country":"DE","admin1":"11","population":28988},{"key":"germany_biesdorf","lat":52.50906,"lon":13.5534,"name":"Biesdorf","nameEn":"Biesdorf","timezone":"Europe/Berlin","country":"DE","admin1":"16","population":28955},{"key":"germany_duesseldorf_pempelfort","lat":51.23812,"lon":6.78678,"name":"Düsseldorf-Pempelfort","nameEn":"Düsseldorf-Pempelfort","timezone":"Europe/Berlin","country":"DE","admin1":"07","population":28941,"aliases":["Duesseldorf-Pempelfort"]},{"key":"germany_vaihingen_an_der_enz","lat":48.93563,"lon":8.96045,"name":"Vaihingen an der Enz","nameEn":"Vaihingen an der Enz","timezone":"Europe/Berlin","country":"DE","admin1":"01","population":28798},{"key":"germany_koethen","lat":51.75185,"lon":11.97093,"name":"Köthen","nameEn":"Köthen","timezone":"Europe/Berlin","country":"DE","admin1":"14","population":28710,"aliases":["Koethen"]},{"key":"germany_geislingen_an_der_steige","lat":48.62423,"lon":9.82736,"name":"Geislingen an der Steige","nameEn":"Geislingen an der Steige","timezone":"Europe/Berlin","country":"DE","admin1":"01","population":28655},{"key":"germany_buehl","lat":48.69676,"lon":8.13523,"name":"Bühl","nameEn":"Bühl","timezone":"Europe/Berlin","country":"DE","admin1":"01","population":28608,"aliases":["Buehl"]},{"key":"germany_muehlheim_am_main","lat":50.11667,"lon":8.83333,"name":"Mühlheim am Main","nameEn":"Mühlheim am Main","timezone":"Europe/Berlin","country":"DE","admin1":"05","population":28534,"aliases":["Muehlheim am Main"]},{"key":"germany_warstein","lat":51.44488,"lon":8.34851,"name":"Warstein","nameEn":"Warstein","timezone":"Europe/Berlin","country":"DE","admin1":"07","population":28532},{"key":"germany_meissen","lat":51.16158,"lon":13.4737,"name":"Meissen","nameEn":"Meissen","timezone":"Europe/Berlin","country":"DE","admin1":"13","population":28492},{"key":"germany_unterschleissheim","lat":48.28038,"lon":11.57684,"name":"Unterschleißheim","nameEn":"Unterschleißheim","timezone":"Europe/Berlin","country":"DE","admin1":"02","population":28482,"aliases":["Unterschleissheim"]},{"key":"germany_neuburg_an_der_donau","lat":48.73218,"lon":11.18709,"name":"Neuburg an der Donau","nameEn":"Neuburg an der Donau","timezone":"Europe/Berlin","country":"DE","admin1":"02","population":28370},{"key":"germany_geilenkirchen","lat":50.96745,"lon":6.11763,"name":"Geilenkirchen","nameEn":"Geilenkirchen","timezone":"Europe/Berlin","country":"DE","admin1":"07","population":28334},{"key":"germany_zeitz","lat":51.04962,"lon":12.1369,"name":"Zeitz","nameEn":"Zeitz","timezone":"Europe/Berlin","country":"DE","admin1":"14","population":28328},{"key":"germany_rendsburg","lat":54.30182,"lon":9.67175,"name":"Rendsburg","nameEn":"Rendsburg","timezone":"Europe/Berlin","country":"DE","admin1":"10","population":28323},{"key":"germany_schwandorf_in_bayern","lat":49.32534,"lon":12.1098,"name":"Schwandorf in Bayern","nameEn":"Schwandorf in Bayern","timezone":"Europe/Berlin","country":"DE","admin1":"02","population":28235},{"key":"germany_bramsche","lat":52.40839,"lon":7.98327,"name":"Bramsche","nameEn":"Bramsche","timezone":"Europe/Berlin","country":"DE","admin1":"06","population":28220},{"key":"germany_plettenberg","lat":51.20949,"lon":7.87261,"name":"Plettenberg","nameEn":"Plettenberg","timezone":"Europe/Berlin","country":"DE","admin1":"07","population":28206},{"key":"germany_karlshorst","lat":52.48419,"lon":13.53185,"name":"Karlshorst","nameEn":"Karlshorst","timezone":"Europe/Berlin","country":"DE","admin1":"16","population":28206},{"key":"germany_kelkheim","lat":50.13703,"lon":8.4502,"name":"Kelkheim","nameEn":"Kelkheim","timezone":"Europe/Berlin","country":"DE","admin1":"05","population":28175},{"key":"germany_neustadt_nord","lat":50.949,"lon":6.9479,"name":"Neustadt/Nord","nameEn":"Neustadt/Nord","timezone":"Europe/Berlin","country":"DE","admin1":"07","population":28146},{"key":"germany_neukirchen_vluyn","lat":51.44665,"lon":6.55194,"name":"Neukirchen-Vluyn","nameEn":"Neukirchen-Vluyn","timezone":"Europe/Berlin","country":"DE","admin1":"07","population":28110},{"key":"germany_lennestadt","lat":51.11721,"lon":8.06707,"name":"Lennestadt","nameEn":"Lennestadt","timezone":"Europe/Berlin","country":"DE","admin1":"07","population":28102},{"key":"germany_wegberg","lat":51.14221,"lon":6.28436,"name":"Wegberg","nameEn":"Wegberg","timezone":"Europe/Berlin","country":"DE","admin1":"07","population":28089},{"key":"germany_lohne","lat":52.66561,"lon":8.23826,"name":"Lohne","nameEn":"Lohne","timezone":"Europe/Berlin","country":"DE","admin1":"06","population":28089},{"key":"germany_leichlingen","lat":51.10628,"lon":7.01873,"name":"Leichlingen","nameEn":"Leichlingen","timezone":"Europe/Berlin","country":"DE","admin1":"07","population":28078},{"key":"germany_kevelaer","lat":51.58243,"lon":6.24603,"name":"Kevelaer","nameEn":"Kevelaer","timezone":"Europe/Berlin","country":"DE","admin1":"07","population":28064},{"key":"germany_stuttgart_feuerbach","lat":48.80867,"lon":9.15719,"name":"Stuttgart Feuerbach","nameEn":"Stuttgart Feuerbach","timezone":"Europe/Berlin","country":"DE","admin1":"01","population":28046},{"key":"germany_saalfeld","lat":50.64826,"lon":11.36536,"name":"Saalfeld","nameEn":"Saalfeld","timezone":"Europe/Berlin","country":"DE","admin1":"15","population":28023},{"key":"germany_friedenau","lat":52.47133,"lon":13.32813,"name":"Friedenau","nameEn":"Friedenau","timezone":"Europe/Berlin","country":"DE","admin1":"16","population":27998},{"key":"germany_baunatal","lat":51.25182,"lon":9.40747,"name":"Baunatal","nameEn":"Baunatal","timezone":"Europe/Berlin","country":"DE","admin1":"05","population":27929},{"key":"germany_koenigsbrunn","lat":48.27506,"lon":10.89178,"name":"Königsbrunn","nameEn":"Königsbrunn","timezone":"Europe/Berlin","country":"DE","admin1":"02","population":27879,"aliases":["Koenigsbrunn"]},{"key":"germany_baesweiler","lat":50.90964,"lon":6.18874,"name":"Baesweiler","nameEn":"Baesweiler","timezone":"Europe/Berlin","country":"DE","admin1":"07","population":27834},{"key":"germany_bad_neuenahr_ahrweiler","lat":50.54322,"lon":7.1113,"name":"Bad Neuenahr-Ahrweiler","nameEn":"Bad Neuenahr-Ahrweiler","timezone":"Europe/Berlin","country":"DE","admin1":"08","population":27823},{"key":"germany_ehingen","lat":48.28259,"lon":9.72749,"name":"Ehingen","nameEn":"Ehingen","timezone":"Europe/Berlin","country":"DE","admin1":"01","population":27764},{"key":"germany_wiesloch","lat":49.29504,"lon":8.69846,"name":"Wiesloch","nameEn":"Wiesloch","timezone":"Europe/Berlin","country":"DE","admin1":"01","population":27731},{"key":"germany_heiligenhaus","lat":51.32662,"lon":6.97106,"name":"Heiligenhaus","nameEn":"Heiligenhaus","timezone":"Europe/Berlin","country":"DE","admin1":"07","population":27700},{"key":"germany_hoerde","lat":51.48371,"lon":7.5003,"name":"Hörde","nameEn":"Hörde","timezone":"Europe/Berlin","country":"DE","admin1":"07","population":27660,"aliases":["Hoerde"]},{"key":"germany_dorstfeld","lat":51.50135,"lon":7.41085,"name":"Dorstfeld","nameEn":"Dorstfeld","timezone":"Europe/Berlin","country":"DE","admin1":"07","population":27655},{"key":"germany_sundern","lat":51.3281,"lon":8.00369,"name":"Sundern","nameEn":"Sundern","timezone":"Europe/Berlin","country":"DE","admin1":"07","population":27654},{"key":"germany_kulmbach","lat":50.10068,"lon":11.45032,"name":"Kulmbach","nameEn":"Kulmbach","timezone":"Europe/Berlin","country":"DE","admin1":"02","population":27565},{"key":"germany_dotzheim","lat":50.07438,"lon":8.19503,"name":"Dotzheim","nameEn":"Dotzheim","timezone":"Europe/Berlin","country":"DE","admin1":"05","population":27557},{"key":"germany_bad_zwischenahn","lat":53.18475,"lon":8.00286,"name":"Bad Zwischenahn","nameEn":"Bad Zwischenahn","timezone":"Europe/Berlin","country":"DE","admin1":"06","population":27550},{"key":"germany_selm","lat":51.69689,"lon":7.46809,"name":"Selm","nameEn":"Selm","timezone":"Europe/Berlin","country":"DE","admin1":"07","population":27540},{"key":"germany_mechernich","lat":50.59304,"lon":6.65224,"name":"Mechernich","nameEn":"Mechernich","timezone":"Europe/Berlin","country":"DE","admin1":"07","population":27537},{"key":"germany_grimma","lat":51.23367,"lon":12.71959,"name":"Grimma","nameEn":"Grimma","timezone":"Europe/Berlin","country":"DE","admin1":"13","population":27529},{"key":"germany_altstadt_sud","lat":50.93331,"lon":6.95954,"name":"Altstadt Sud","nameEn":"Altstadt Sud","timezone":"Europe/Berlin","country":"DE","admin1":"07","population":27515},{"key":"germany_friedberg_2","lat":50.33739,"lon":8.75591,"name":"Friedberg","nameEn":"Friedberg","timezone":"Europe/Berlin","country":"DE","admin1":"05","population":27484},