[{"key":"russia_province_moscow","lat":55.75204,"lon":37.61781,"name":"مسکو","nameEn":"Moscow","timezone":"Europe/Moscow","country":"RU","admin1":"48","admin1Name":"مسکو","admin1NameEn":"Moscow","countryName":"روسیه","population":10381222,"tier":"province","isImportant":true},{"key":"russia_province_st_petersburg","lat":59.93863,"lon":30.31413,"name":"St.-Petersburg","nameEn":"St.-Petersburg","timezone":"Europe/Moscow","country":"RU","admin1":"66","admin1Name":"St.-Petersburg","admin1NameEn":"St.-Petersburg","countryName":"روسیه","population":5351935,"tier":"province","isImportant":true},{"key":"russia_province_novosibirsk_oblast","lat":55.02259,"lon":82.93175,"name":"Novosibirsk Oblast","nameEn":"Novosibirsk Oblast","timezone":"Asia/Novosibirsk","country":"RU","admin1":"53","admin1Name":"Novosibirsk Oblast","admin1NameEn":"Novosibirsk Oblast","countryName":"روسیه","population":1612833,"tier":"province","isImportant":true},{"key":"russia_province_sverdlovsk_oblast","lat":56.85733,"lon":60.61529,"name":"Sverdlovsk Oblast","nameEn":"Sverdlovsk Oblast","timezone":"Asia/Yekaterinburg","country":"RU","admin1":"71","admin1Name":"Sverdlovsk Oblast","admin1NameEn":"Sverdlovsk Oblast","countryName":"روسیه","population":1495066,"tier":"province","isImportant":true},{"key":"russia_province_nizhny_novgorod_oblast","lat":56.32867,"lon":44.00205,"name":"Nizhny Novgorod Oblast","nameEn":"Nizhny Novgorod Oblast","timezone":"Europe/Moscow","country":"RU","admin1":"51","admin1Name":"Nizhny Novgorod Oblast","admin1NameEn":"Nizhny Novgorod Oblast","countryName":"روسیه","population":1259013,"tier":"province","isImportant":true},{"key":"russia_province_tatarstan_republic","lat":55.78874,"lon":49.12214,"name":"Tatarstan Republic","nameEn":"Tatarstan Republic","timezone":"Europe/Moscow","country":"RU","admin1":"73","admin1Name":"Tatarstan Republic","admin1NameEn":"Tatarstan Republic","countryName":"روسیه","population":1243500,"tier":"province","isImportant":true},{"key":"russia_province_chelyabinsk","lat":55.1611,"lon":61.42877,"name":"Chelyabinsk","nameEn":"Chelyabinsk","timezone":"Asia/Yekaterinburg","country":"RU","admin1":"13","admin1Name":"Chelyabinsk","admin1NameEn":"Chelyabinsk","countryName":"روسیه","population":1202371,"tier":"province","isImportant":true},{"key":"russia_province_omsk_oblast","lat":54.99244,"lon":73.36859,"name":"Omsk Oblast","nameEn":"Omsk Oblast","timezone":"Asia/Omsk","country":"RU","admin1":"54","admin1Name":"Omsk Oblast","admin1NameEn":"Omsk Oblast","countryName":"روسیه","population":1172070,"tier":"province","isImportant":true},{"key":"russia_province_samara_oblast","lat":53.20767,"lon":50.13553,"name":"Samara Oblast","nameEn":"Samara Oblast","timezone":"Europe/Samara","country":"RU","admin1":"65","admin1Name":"Samara Oblast","admin1NameEn":"Samara Oblast","countryName":"روسیه","population":1163399,"tier":"province","isImportant":true},{"key":"russia_province_rostov","lat":47.21997,"lon":39.70769,"name":"Rostov","nameEn":"Rostov","timezone":"Europe/Moscow","country":"RU","admin1":"61","admin1Name":"Rostov","admin1NameEn":"Rostov","countryName":"روسیه","population":1130305,"tier":"province","isImportant":true},{"key":"russia_province_bashkortostan_republic","lat":54.74306,"lon":55.96779,"name":"Bashkortostan Republic","nameEn":"Bashkortostan Republic","timezone":"Asia/Yekaterinburg","country":"RU","admin1":"08","admin1Name":"Bashkortostan Republic","admin1NameEn":"Bashkortostan Republic","countryName":"روسیه","population":1120547,"tier":"province","isImportant":true},{"key":"russia_province_krasnoyarsk_krai","lat":56.03742,"lon":92.93136,"name":"Krasnoyarsk Krai","nameEn":"Krasnoyarsk Krai","timezone":"Asia/Krasnoyarsk","country":"RU","admin1":"91","admin1Name":"Krasnoyarsk Krai","admin1NameEn":"Krasnoyarsk Krai","countryName":"روسیه","population":1090811,"tier":"province","isImportant":true},{"key":"russia_province_voronezh_oblast","lat":51.66833,"lon":39.19204,"name":"Voronezh Oblast","nameEn":"Voronezh Oblast","timezone":"Europe/Moscow","country":"RU","admin1":"86","admin1Name":"Voronezh Oblast","admin1NameEn":"Voronezh Oblast","countryName":"روسیه","population":1047549,"tier":"province","isImportant":true},{"key":"russia_province_volgograd_oblast","lat":48.71378,"lon":44.4976,"name":"Volgograd Oblast","nameEn":"Volgograd Oblast","timezone":"Europe/Volgograd","country":"RU","admin1":"84","admin1Name":"Volgograd Oblast","admin1NameEn":"Volgograd Oblast","countryName":"روسیه","population":1013533,"tier":"province","isImportant":true},{"key":"russia_province_perm_krai","lat":58.01046,"lon":56.25017,"name":"Perm Krai","nameEn":"Perm Krai","timezone":"Asia/Yekaterinburg","country":"RU","admin1":"90","admin1Name":"Perm Krai","admin1NameEn":"Perm Krai","countryName":"روسیه","population":982419,"tier":"province","isImportant":true},{"key":"russia_province_krasnodar_krai","lat":45.04534,"lon":38.98178,"name":"Krasnodar Krai","nameEn":"Krasnodar Krai","timezone":"Europe/Moscow","country":"RU","admin1":"38","admin1Name":"Krasnodar Krai","admin1NameEn":"Krasnodar Krai","countryName":"روسیه","population":899541,"tier":"province","isImportant":true},{"key":"russia_province_saratov_oblast","lat":51.54048,"lon":45.9901,"name":"Saratov Oblast","nameEn":"Saratov Oblast","timezone":"Europe/Saratov","country":"RU","admin1":"67","admin1Name":"Saratov Oblast","admin1NameEn":"Saratov Oblast","countryName":"روسیه","population":844858,"tier":"province","isImportant":true},{"key":"russia_province_tyumen_oblast","lat":57.15222,"lon":65.52722,"name":"Tyumen Oblast","nameEn":"Tyumen Oblast","timezone":"Asia/Yekaterinburg","country":"RU","admin1":"78","admin1Name":"Tyumen Oblast","admin1NameEn":"Tyumen Oblast","countryName":"روسیه","population":768358,"tier":"province","isImportant":true},{"key":"russia_province_udmurtiya_republic","lat":56.85225,"lon":53.19862,"name":"Udmurtiya Republic","nameEn":"Udmurtiya Republic","timezone":"Europe/Samara","country":"RU","admin1":"80","admin1Name":"Udmurtiya Republic","admin1NameEn":"Udmurtiya Republic","countryName":"روسیه","population":648213,"tier":"province","isImportant":true},{"key":"russia_province_altai_krai","lat":53.36199,"lon":83.72786,"name":"Altai Krai","nameEn":"Altai Krai","timezone":"Asia/Barnaul","country":"RU","admin1":"04","admin1Name":"Altai Krai","admin1NameEn":"Altai Krai","countryName":"روسیه","population":632372,"tier":"province","isImportant":true},{"key":"russia_province_ulyanovsk","lat":54.32824,"lon":48.38657,"name":"Ulyanovsk","nameEn":"Ulyanovsk","timezone":"Europe/Ulyanovsk","country":"RU","admin1":"81","admin1Name":"Ulyanovsk","admin1NameEn":"Ulyanovsk","countryName":"روسیه","population":626540,"tier":"province","isImportant":true},{"key":"russia_province_irkutsk_oblast","lat":52.29566,"lon":104.29076,"name":"Irkutsk Oblast","nameEn":"Irkutsk Oblast","timezone":"Asia/Irkutsk","country":"RU","admin1":"20","admin1Name":"Irkutsk Oblast","admin1NameEn":"Irkutsk Oblast","countryName":"روسیه","population":623869,"tier":"province","isImportant":true},{"key":"russia_province_khabarovsk","lat":48.46204,"lon":135.0971,"name":"Khabarovsk","nameEn":"Khabarovsk","timezone":"Asia/Vladivostok","country":"RU","admin1":"30","admin1Name":"Khabarovsk","admin1NameEn":"Khabarovsk","countryName":"روسیه","population":618150,"tier":"province","isImportant":true},{"key":"russia_province_yaroslavl_oblast","lat":57.62987,"lon":39.87368,"name":"Yaroslavl Oblast","nameEn":"Yaroslavl Oblast","timezone":"Europe/Moscow","country":"RU","admin1":"88","admin1Name":"Yaroslavl Oblast","admin1NameEn":"Yaroslavl Oblast","countryName":"روسیه","population":608722,"tier":"province","isImportant":true},{"key":"russia_province_primorye","lat":43.10562,"lon":131.87353,"name":"Primorye","nameEn":"Primorye","timezone":"Asia/Vladivostok","country":"RU","admin1":"59","admin1Name":"Primorye","admin1NameEn":"Primorye","countryName":"روسیه","population":604901,"tier":"province","isImportant":true},{"key":"russia_province_dagestan","lat":42.97782,"lon":47.50027,"name":"Dagestan","nameEn":"Dagestan","timezone":"Europe/Moscow","country":"RU","admin1":"17","admin1Name":"Dagestan","admin1NameEn":"Dagestan","countryName":"روسیه","population":596356,"tier":"province","isImportant":true},{"key":"russia_province_tomsk_oblast","lat":56.50049,"lon":84.98216,"name":"Tomsk Oblast","nameEn":"Tomsk Oblast","timezone":"Asia/Tomsk","country":"RU","admin1":"75","admin1Name":"Tomsk Oblast","admin1NameEn":"Tomsk Oblast","countryName":"روسیه","population":574002,"tier":"province","isImportant":true},{"key":"russia_province_orenburg_oblast","lat":51.76712,"lon":55.09883,"name":"Orenburg Oblast","nameEn":"Orenburg Oblast","timezone":"Asia/Yekaterinburg","country":"RU","admin1":"55","admin1Name":"Orenburg Oblast","admin1NameEn":"Orenburg Oblast","countryName":"روسیه","population":564773,"tier":"province","isImportant":true},{"key":"russia_province_kuzbass","lat":55.35417,"lon":86.10435,"name":"Kuzbass","nameEn":"Kuzbass","timezone":"Asia/Novokuznetsk","country":"RU","admin1":"29","admin1Name":"Kuzbass","admin1NameEn":"Kuzbass","countryName":"روسیه","population":558973,"tier":"province","isImportant":true},{"key":"russia_province_ryazan_oblast","lat":54.62696,"lon":39.70415,"name":"Ryazan Oblast","nameEn":"Ryazan Oblast","timezone":"Europe/Moscow","country":"RU","admin1":"62","admin1Name":"Ryazan Oblast","admin1NameEn":"Ryazan Oblast","countryName":"روسیه","population":538962,"tier":"province","isImportant":true,"aliases":["Ryazan'"]},{"key":"russia_province_astrakhan_oblast","lat":46.34968,"lon":48.04076,"name":"Astrakhan Oblast","nameEn":"Astrakhan Oblast","timezone":"Europe/Astrakhan","country":"RU","admin1":"07","admin1Name":"Astrakhan Oblast","admin1NameEn":"Astrakhan Oblast","countryName":"روسیه","population":533925,"tier":"province","isImportant":true},{"key":"russia_province_penza_oblast","lat":53.19568,"lon":45.01075,"name":"Penza Oblast","nameEn":"Penza Oblast","timezone":"Europe/Moscow","country":"RU","admin1":"57","admin1Name":"Penza Oblast","admin1NameEn":"Penza Oblast","countryName":"روسیه","population":523553,"tier":"province","isImportant":true},{"key":"russia_province_lipetsk_oblast","lat":52.5876,"lon":39.55151,"name":"Lipetsk Oblast","nameEn":"Lipetsk Oblast","timezone":"Europe/Moscow","country":"RU","admin1":"43","admin1Name":"Lipetsk Oblast","admin1NameEn":"Lipetsk Oblast","countryName":"روسیه","population":509735,"tier":"province","isImportant":true},{"key":"russia_province_kirov_oblast","lat":58.59809,"lon":49.65783,"name":"Kirov Oblast","nameEn":"Kirov Oblast","timezone":"Europe/Kirov","country":"RU","admin1":"33","admin1Name":"Kirov Oblast","admin1NameEn":"Kirov Oblast","countryName":"روسیه","population":507155,"tier":"province","isImportant":true},{"key":"russia_province_chuvash_republic","lat":56.13218,"lon":47.246,"name":"Chuvash Republic","nameEn":"Chuvash Republic","timezone":"Europe/Moscow","country":"RU","admin1":"16","admin1Name":"Chuvash Republic","admin1NameEn":"Chuvash Republic","countryName":"روسیه","population":492331,"tier":"province","isImportant":true},{"key":"russia_province_tula_oblast","lat":54.19609,"lon":37.61822,"name":"Tula Oblast","nameEn":"Tula Oblast","timezone":"Europe/Moscow","country":"RU","admin1":"76","admin1Name":"Tula Oblast","admin1NameEn":"Tula Oblast","countryName":"روسیه","population":482873,"tier":"province","isImportant":true},{"key":"russia_province_kaliningrad_oblast","lat":54.70639,"lon":20.51102,"name":"Kaliningrad Oblast","nameEn":"Kaliningrad Oblast","timezone":"Europe/Kaliningrad","country":"RU","admin1":"23","admin1Name":"Kaliningrad Oblast","admin1NameEn":"Kaliningrad Oblast","countryName":"روسیه","population":475056,"tier":"province","isImportant":true},{"key":"russia_province_kursk_oblast","lat":51.72689,"lon":36.18457,"name":"Kursk Oblast","nameEn":"Kursk Oblast","timezone":"Europe/Moscow","country":"RU","admin1":"41","admin1Name":"Kursk Oblast","admin1NameEn":"Kursk Oblast","countryName":"روسیه","population":448733,"tier":"province","isImportant":true},{"key":"russia_province_stavropol_kray","lat":45.03442,"lon":41.9642,"name":"Stavropol Kray","nameEn":"Stavropol Kray","timezone":"Europe/Moscow","country":"RU","admin1":"70","admin1Name":"Stavropol Kray","admin1NameEn":"Stavropol Kray","countryName":"روسیه","population":433931,"tier":"province","isImportant":true},{"key":"russia_province_bryansk_oblast","lat":53.27096,"lon":34.32143,"name":"Bryansk Oblast","nameEn":"Bryansk Oblast","timezone":"Europe/Moscow","country":"RU","admin1":"10","admin1Name":"Bryansk Oblast","admin1NameEn":"Bryansk Oblast","countryName":"روسیه","population":427236,"tier":"province","isImportant":true},{"key":"russia_province_tver_oblast","lat":56.85836,"lon":35.90057,"name":"Tver Oblast","nameEn":"Tver Oblast","timezone":"Europe/Moscow","country":"RU","admin1":"77","admin1Name":"Tver Oblast","admin1NameEn":"Tver Oblast","countryName":"روسیه","population":420065,"tier":"province","isImportant":true},{"key":"russia_province_ivanovo_oblast","lat":56.99988,"lon":40.97257,"name":"Ivanovo Oblast","nameEn":"Ivanovo Oblast","timezone":"Europe/Moscow","country":"RU","admin1":"21","admin1Name":"Ivanovo Oblast","admin1NameEn":"Ivanovo Oblast","countryName":"روسیه","population":406113,"tier":"province","isImportant":true},{"key":"russia_province_buryatiya_republic","lat":51.82648,"lon":107.59979,"name":"Buryatiya Republic","nameEn":"Buryatiya Republic","timezone":"Asia/Irkutsk","country":"RU","admin1":"11","admin1Name":"Buryatiya Republic","admin1NameEn":"Buryatiya Republic","countryName":"روسیه","population":360278,"tier":"province","isImportant":true},{"key":"russia_province_vladimir_oblast","lat":56.13854,"lon":40.39976,"name":"Vladimir Oblast","nameEn":"Vladimir Oblast","timezone":"Europe/Moscow","country":"RU","admin1":"83","admin1Name":"Vladimir Oblast","admin1NameEn":"Vladimir Oblast","countryName":"روسیه","population":357024,"tier":"province","isImportant":true},{"key":"russia_province_arkhangelskaya","lat":64.5461,"lon":40.55183,"name":"Arkhangelskaya","nameEn":"Arkhangelskaya","timezone":"Europe/Moscow","country":"RU","admin1":"06","admin1Name":"Arkhangelskaya","admin1NameEn":"Arkhangelskaya","countryName":"روسیه","population":349742,"tier":"province","isImportant":true,"aliases":["Arkhangel'sk"]},{"key":"russia_province_zabaykalskiy_transbaikal_kray","lat":52.04311,"lon":113.49171,"name":"Zabaykalskiy (Transbaikal) Kray","nameEn":"Zabaykalskiy (Transbaikal) Kray","timezone":"Asia/Chita","country":"RU","admin1":"93","admin1Name":"Zabaykalskiy (Transbaikal) Kray","admin1NameEn":"Zabaykalskiy (Transbaikal) Kray","countryName":"روسیه","population":349005,"tier":"province","isImportant":true},{"key":"russia_province_belgorod_oblast","lat":50.60343,"lon":36.58091,"name":"Belgorod Oblast","nameEn":"Belgorod Oblast","timezone":"Europe/Moscow","country":"RU","admin1":"09","admin1Name":"Belgorod Oblast","admin1NameEn":"Belgorod Oblast","countryName":"روسیه","population":345289,"tier":"province","isImportant":true},{"key":"russia_province_kaluga_oblast","lat":54.53063,"lon":36.27,"name":"Kaluga Oblast","nameEn":"Kaluga Oblast","timezone":"Europe/Moscow","country":"RU","admin1":"25","admin1Name":"Kaluga Oblast","admin1NameEn":"Kaluga Oblast","countryName":"روسیه","population":340851,"tier":"province","isImportant":true},{"key":"russia_province_smolensk_oblast","lat":54.77826,"lon":32.05088,"name":"Smolensk Oblast","nameEn":"Smolensk Oblast","timezone":"Europe/Moscow","country":"RU","admin1":"69","admin1Name":"Smolensk Oblast","admin1NameEn":"Smolensk Oblast","countryName":"روسیه","population":330025,"tier":"province","isImportant":true},{"key":"russia_province_mordoviya_republic","lat":54.18485,"lon":45.17166,"name":"Mordoviya Republic","nameEn":"Mordoviya Republic","timezone":"Europe/Moscow","country":"RU","admin1":"46","admin1Name":"Mordoviya Republic","admin1NameEn":"Mordoviya Republic","countryName":"روسیه","population":318841,"tier":"province","isImportant":true},{"key":"russia_province_vologda_oblast","lat":59.13333,"lon":37.9,"name":"Vologda Oblast","nameEn":"Vologda Oblast","timezone":"Europe/Moscow","country":"RU","admin1":"85","admin1Name":"Vologda Oblast","admin1NameEn":"Vologda Oblast","countryName":"روسیه","population":315738,"tier":"province","isImportant":true},{"key":"russia_province_kurgan_oblast","lat":55.44905,"lon":65.34344,"name":"Kurgan Oblast","nameEn":"Kurgan Oblast","timezone":"Asia/Yekaterinburg","country":"RU","admin1":"40","admin1Name":"Kurgan Oblast","admin1NameEn":"Kurgan Oblast","countryName":"روسیه","population":309285,"tier":"province","isImportant":true},{"key":"russia_province_north_ossetia_alania","lat":43.04101,"lon":44.66986,"name":"North Ossetia–Alania","nameEn":"North Ossetia–Alania","timezone":"Europe/Moscow","country":"RU","admin1":"68","admin1Name":"North Ossetia–Alania","admin1NameEn":"North Ossetia–Alania","countryName":"روسیه","population":306258,"tier":"province","isImportant":true},{"key":"russia_province_oryol_oblast","lat":52.96879,"lon":36.0791,"name":"Oryol oblast","nameEn":"Oryol oblast","timezone":"Europe/Moscow","country":"RU","admin1":"56","admin1Name":"Oryol oblast","admin1NameEn":"Oryol oblast","countryName":"روسیه","population":303696,"tier":"province","isImportant":true,"aliases":["Orel"]},{"key":"russia_province_khanty_mansia","lat":61.25757,"lon":73.41775,"name":"Khanty-Mansia","nameEn":"Khanty-Mansia","timezone":"Asia/Yekaterinburg","country":"RU","admin1":"32","admin1Name":"Khanty-Mansia","admin1NameEn":"Khanty-Mansia","countryName":"روسیه","population":300367,"tier":"province","isImportant":true},{"key":"russia_province_chechnya","lat":43.31195,"lon":45.68895,"name":"Chechnya","nameEn":"Chechnya","timezone":"Europe/Moscow","country":"RU","admin1":"12","admin1Name":"Chechnya","admin1NameEn":"Chechnya","countryName":"روسیه","population":297137,"tier":"province","isImportant":true},{"key":"russia_province_murmansk","lat":68.96778,"lon":33.09922,"name":"Murmansk","nameEn":"Murmansk","timezone":"Europe/Moscow","country":"RU","admin1":"49","admin1Name":"Murmansk","admin1NameEn":"Murmansk","countryName":"روسیه","population":295374,"tier":"province","isImportant":true},{"key":"russia_province_tambov_oblast","lat":52.73632,"lon":41.44102,"name":"Tambov Oblast","nameEn":"Tambov Oblast","timezone":"Europe/Moscow","country":"RU","admin1":"72","admin1Name":"Tambov Oblast","admin1NameEn":"Tambov Oblast","countryName":"روسیه","population":293661,"tier":"province","isImportant":true},{"key":"russia_province_karelia","lat":61.78491,"lon":34.34691,"name":"Karelia","nameEn":"Karelia","timezone":"Europe/Moscow","country":"RU","admin1":"28","admin1Name":"Karelia","admin1NameEn":"Karelia","countryName":"روسیه","population":279190,"tier":"province","isImportant":true},{"key":"russia_province_kostroma_oblast","lat":57.76638,"lon":40.92828,"name":"Kostroma Oblast","nameEn":"Kostroma Oblast","timezone":"Europe/Moscow","country":"RU","admin1":"37","admin1Name":"Kostroma Oblast","admin1NameEn":"Kostroma Oblast","countryName":"روسیه","population":277280,"tier":"province","isImportant":true},{"key":"russia_province_mariy_el_republic","lat":56.63877,"lon":47.89078,"name":"Mariy-El Republic","nameEn":"Mariy-El Republic","timezone":"Europe/Moscow","country":"RU","admin1":"45","admin1Name":"Mariy-El Republic","admin1NameEn":"Mariy-El Republic","countryName":"روسیه","population":268272,"tier":"province","isImportant":true},{"key":"russia_province_komi","lat":61.66393,"lon":50.8163,"name":"Komi","nameEn":"Komi","timezone":"Europe/Moscow","country":"RU","admin1":"34","admin1Name":"Komi","admin1NameEn":"Komi","countryName":"روسیه","population":245083,"tier":"province","isImportant":true},{"key":"russia_province_moscow_oblast","lat":55.9001,"lon":37.42848,"name":"Moscow Oblast","nameEn":"Moscow Oblast","timezone":"Europe/Moscow","country":"RU","admin1":"47","admin1Name":"Moscow Oblast","admin1NameEn":"Moscow Oblast","countryName":"روسیه","population":239967,"tier":"province","isImportant":true},{"key":"russia_province_kabardino_balkariya_republic","lat":43.49806,"lon":43.61889,"name":"Kabardino-Balkariya Republic","nameEn":"Kabardino-Balkariya Republic","timezone":"Europe/Moscow","country":"RU","admin1":"22","admin1Name":"Kabardino-Balkariya Republic","admin1NameEn":"Kabardino-Balkariya Republic","countryName":"روسیه","population":239300,"tier":"province","isImportant":true},{"key":"russia_province_sakha","lat":62.03114,"lon":129.72288,"name":"Sakha","nameEn":"Sakha","timezone":"Asia/Yakutsk","country":"RU","admin1":"63","admin1Name":"Sakha","admin1NameEn":"Sakha","countryName":"روسیه","population":235600,"tier":"province","isImportant":true},{"key":"russia_province_amur_oblast","lat":50.27593,"lon":127.52637,"name":"Amur Oblast","nameEn":"Amur Oblast","timezone":"Asia/Yakutsk","country":"RU","admin1":"05","admin1Name":"Amur Oblast","admin1NameEn":"Amur Oblast","countryName":"روسیه","population":225091,"tier":"province","isImportant":true},{"key":"russia_province_novgorod_oblast","lat":58.52131,"lon":31.27104,"name":"Novgorod Oblast","nameEn":"Novgorod Oblast","timezone":"Europe/Moscow","country":"RU","admin1":"52","admin1Name":"Novgorod Oblast","admin1NameEn":"Novgorod Oblast","countryName":"روسیه","population":222868,"tier":"province","isImportant":true},{"key":"russia_province_pskov_oblast","lat":57.81922,"lon":28.33181,"name":"Pskov Oblast","nameEn":"Pskov Oblast","timezone":"Europe/Moscow","country":"RU","admin1":"60","admin1Name":"Pskov Oblast","admin1NameEn":"Pskov Oblast","countryName":"روسیه","population":210501,"tier":"province","isImportant":true},{"key":"russia_province_sakhalin_oblast","lat":46.9543,"lon":142.73559,"name":"Sakhalin Oblast","nameEn":"Sakhalin Oblast","timezone":"Asia/Sakhalin","country":"RU","admin1":"64","admin1Name":"Sakhalin Oblast","admin1NameEn":"Sakhalin Oblast","countryName":"روسیه","population":198973,"tier":"province","isImportant":true},{"key":"russia_province_khakasiya_republic","lat":53.7154,"lon":91.42593,"name":"Khakasiya Republic","nameEn":"Khakasiya Republic","timezone":"Asia/Krasnoyarsk","country":"RU","admin1":"31","admin1Name":"Khakasiya Republic","admin1NameEn":"Khakasiya Republic","countryName":"روسیه","population":184168,"tier":"province","isImportant":true},{"key":"russia_province_kamchatka","lat":53.06393,"lon":158.62751,"name":"Kamchatka","nameEn":"Kamchatka","timezone":"Asia/Kamchatka","country":"RU","admin1":"92","admin1Name":"Kamchatka","admin1NameEn":"Kamchatka","countryName":"روسیه","population":181216,"tier":"province","isImportant":true},{"key":"russia_province_ingushetiya_republic","lat":43.22597,"lon":44.77323,"name":"Ingushetiya Republic","nameEn":"Ingushetiya Republic","timezone":"Europe/Moscow","country":"RU","admin1":"19","admin1Name":"Ingushetiya Republic","admin1NameEn":"Ingushetiya Republic","countryName":"روسیه","population":164131,"tier":"province","isImportant":true},{"key":"russia_province_adygeya_republic","lat":44.60789,"lon":40.10242,"name":"Adygeya Republic","nameEn":"Adygeya Republic","timezone":"Europe/Moscow","country":"RU","admin1":"01","admin1Name":"Adygeya Republic","admin1NameEn":"Adygeya Republic","countryName":"روسیه","population":141970,"tier":"province","isImportant":true},{"key":"russia_province_karachayevo_cherkesiya_republic","lat":44.22375,"lon":42.04624,"name":"Karachayevo-Cherkesiya Republic","nameEn":"Karachayevo-Cherkesiya Republic","timezone":"Europe/Moscow","country":"RU","admin1":"27","admin1Name":"Karachayevo-Cherkesiya Republic","admin1NameEn":"Karachayevo-Cherkesiya Republic","countryName":"روسیه","population":122395,"tier":"province","isImportant":true},{"key":"russia_province_republic_of_tyva","lat":51.71108,"lon":94.43776,"name":"Republic of Tyva","nameEn":"Republic of Tyva","timezone":"Asia/Krasnoyarsk","country":"RU","admin1":"79","admin1Name":"Republic of Tyva","admin1NameEn":"Republic of Tyva","countryName":"روسیه","population":116983,"tier":"province","isImportant":true},{"key":"russia_province_yamalo_nenets","lat":63.19309,"lon":75.43728,"name":"Yamalo-Nenets","nameEn":"Yamalo-Nenets","timezone":"Asia/Yekaterinburg","country":"RU","admin1":"87","admin1Name":"Yamalo-Nenets","admin1NameEn":"Yamalo-Nenets","countryName":"روسیه","population":110000,"tier":"province","isImportant":true},{"key":"russia_province_kalmykiya_republic","lat":46.30794,"lon":44.25537,"name":"Kalmykiya Republic","nameEn":"Kalmykiya Republic","timezone":"Europe/Moscow","country":"RU","admin1":"24","admin1Name":"Kalmykiya Republic","admin1NameEn":"Kalmykiya Republic","countryName":"روسیه","population":106971,"tier":"province","isImportant":true},{"key":"russia_province_leningradskaya_oblast","lat":60.01375,"lon":30.39471,"name":"Leningradskaya Oblast'","nameEn":"Leningradskaya Oblast'","timezone":"Europe/Moscow","country":"RU","admin1":"42","admin1Name":"Leningradskaya Oblast'","admin1NameEn":"Leningradskaya Oblast'","countryName":"روسیه","population":103304,"tier":"province","isImportant":true},{"key":"russia_province_magadan_oblast","lat":59.56274,"lon":150.80211,"name":"Magadan Oblast","nameEn":"Magadan Oblast","timezone":"Asia/Magadan","country":"RU","admin1":"44","admin1Name":"Magadan Oblast","admin1NameEn":"Magadan Oblast","countryName":"روسیه","population":92782,"tier":"province","isImportant":true},{"key":"russia_province_jewish_autonomous_oblast","lat":48.793,"lon":132.92033,"name":"Jewish Autonomous Oblast","nameEn":"Jewish Autonomous Oblast","timezone":"Asia/Vladivostok","country":"RU","admin1":"89","admin1Name":"Jewish Autonomous Oblast","admin1NameEn":"Jewish Autonomous Oblast","countryName":"روسیه","population":73623,"tier":"province","isImportant":true},{"key":"russia_province_altai","lat":51.96056,"lon":85.91892,"name":"Altai","nameEn":"Altai","timezone":"Asia/Barnaul","country":"RU","admin1":"03","admin1Name":"Altai","admin1NameEn":"Altai","countryName":"روسیه","population":63214,"tier":"province","isImportant":true},{"key":"russia_province_nenets","lat":67.66782,"lon":53.09792,"name":"Nenets","nameEn":"Nenets","timezone":"Europe/Kirov","country":"RU","admin1":"50","admin1Name":"Nenets","admin1NameEn":"Nenets","countryName":"روسیه","population":22912,"tier":"province","isImportant":true},{"key":"russia_province_chukotka","lat":64.73424,"lon":177.5103,"name":"Chukotka","nameEn":"Chukotka","timezone":"Asia/Anadyr","country":"RU","admin1":"15","admin1Name":"Chukotka","admin1NameEn":"Chukotka","countryName":"روسیه","population":15604,"tier":"province","isImportant":true},{"key":"russia_tolyatti","lat":53.5303,"lon":49.3461,"name":"Tolyatti","nameEn":"Tolyatti","timezone":"Europe/Samara","country":"RU","admin1":"65","admin1Name":"Samara Oblast","admin1NameEn":"Samara Oblast","countryName":"روسیه","population":702879,"tier":"major","isImportant":true},{"key":"russia_novokuznetsk","lat":53.75752,"lon":87.13599,"name":"Novokuznetsk","nameEn":"Novokuznetsk","timezone":"Asia/Novokuznetsk","country":"RU","admin1":"29","admin1Name":"Kuzbass","admin1NameEn":"Kuzbass","countryName":"روسیه","population":539616,"tier":"major","isImportant":true},{"key":"russia_naberezhnyye_chelny","lat":55.73718,"lon":52.41961,"name":"Naberezhnyye Chelny","nameEn":"Naberezhnyye Chelny","timezone":"Europe/Moscow","country":"RU","admin1":"73","admin1Name":"Tatarstan Republic","admin1NameEn":"Tatarstan Republic","countryName":"روسیه","population":509870,"tier":"major","isImportant":true},{"key":"russia_kalininskiy","lat":59.99675,"lon":30.3899,"name":"Kalininskiy","nameEn":"Kalininskiy","timezone":"Europe/Moscow","country":"RU","admin1":"66","admin1Name":"St.-Petersburg","admin1NameEn":"St.-Petersburg","countryName":"روسیه","population":504641,"tier":"major","isImportant":true},{"key":"russia_magnitogorsk","lat":53.39808,"lon":59.0066,"name":"Magnitogorsk","nameEn":"Magnitogorsk","timezone":"Asia/Yekaterinburg","country":"RU","admin1":"13","admin1Name":"Chelyabinsk","admin1NameEn":"Chelyabinsk","countryName":"روسیه","population":413351,"tier":"major","isImportant":true},{"key":"russia_nizhny_tagil","lat":57.91944,"lon":59.965,"name":"Nizhny Tagil","nameEn":"Nizhny Tagil","timezone":"Asia/Yekaterinburg","country":"RU","admin1":"71","admin1Name":"Sverdlovsk Oblast","admin1NameEn":"Sverdlovsk Oblast","countryName":"روسیه","population":381116,"tier":"major","isImportant":true},{"key":"russia_krasnogvargeisky","lat":59.97305,"lon":30.47607,"name":"Krasnogvargeisky","nameEn":"Krasnogvargeisky","timezone":"Europe/Moscow","country":"RU","admin1":"66","admin1Name":"St.-Petersburg","admin1NameEn":"St.-Petersburg","countryName":"روسیه","population":337091,"tier":"major","isImportant":true},{"key":"russia_sochi","lat":43.59699,"lon":39.72477,"name":"Sochi","nameEn":"Sochi","timezone":"Europe/Moscow","country":"RU","admin1":"38","admin1Name":"Krasnodar Krai","admin1NameEn":"Krasnodar Krai","countryName":"روسیه","population":327608,"tier":"major","isImportant":true},{"key":"russia_volzhsky","lat":48.78583,"lon":44.77973,"name":"Volzhsky","nameEn":"Volzhsky","timezone":"Europe/Volgograd","country":"RU","admin1":"84","admin1Name":"Volgograd Oblast","admin1NameEn":"Volgograd Oblast","countryName":"روسیه","population":323293,"tier":"major","isImportant":true},{"key":"russia_vologda","lat":59.2239,"lon":39.88398,"name":"Vologda","nameEn":"Vologda","timezone":"Europe/Moscow","country":"RU","admin1":"85","admin1Name":"Vologda Oblast","admin1NameEn":"Vologda Oblast","countryName":"روسیه","population":312420,"tier":"major","isImportant":true},{"key":"russia_taganrog","lat":47.23627,"lon":38.9053,"name":"Taganrog","nameEn":"Taganrog","timezone":"Europe/Moscow","country":"RU","admin1":"61","admin1Name":"Rostov","admin1NameEn":"Rostov","countryName":"روسیه","population":279056,"tier":"major","isImportant":true},{"key":"russia_komsomolsk_on_amur","lat":50.55034,"lon":137.00995,"name":"Komsomolsk-on-Amur","nameEn":"Komsomolsk-on-Amur","timezone":"Asia/Vladivostok","country":"RU","admin1":"30","admin1Name":"Khabarovsk","admin1NameEn":"Khabarovsk","countryName":"روسیه","population":275908,"tier":"major","isImportant":true},{"key":"russia_sterlitamak","lat":53.63793,"lon":55.9533,"name":"Sterlitamak","nameEn":"Sterlitamak","timezone":"Asia/Yekaterinburg","country":"RU","admin1":"08","admin1Name":"Bashkortostan Republic","admin1NameEn":"Bashkortostan Republic","countryName":"روسیه","population":267231,"tier":"major","isImportant":true},{"key":"russia_bratsk","lat":56.1325,"lon":101.61417,"name":"Bratsk","nameEn":"Bratsk","timezone":"Asia/Irkutsk","country":"RU","admin1":"20","admin1Name":"Irkutsk Oblast","admin1NameEn":"Irkutsk Oblast","countryName":"روسیه","population":256600,"tier":"major","isImportant":true},{"key":"russia_orsk","lat":51.23206,"lon":58.48802,"name":"Orsk","nameEn":"Orsk","timezone":"Asia/Yekaterinburg","country":"RU","admin1":"55","admin1Name":"Orenburg Oblast","admin1NameEn":"Orenburg Oblast","countryName":"روسیه","population":246836,"tier":"major","isImportant":true},{"key":"russia_nizhnevartovsk","lat":60.9344,"lon":76.5531,"name":"Nizhnevartovsk","nameEn":"Nizhnevartovsk","timezone":"Asia/Yekaterinburg","country":"RU","admin1":"32","admin1Name":"Khanty-Mansia","admin1NameEn":"Khanty-Mansia","countryName":"روسیه","population":244937,"tier":"major","isImportant":true},{"key":"russia_angarsk","lat":52.55968,"lon":103.91413,"name":"Angarsk","nameEn":"Angarsk","timezone":"Asia/Irkutsk","country":"RU","admin1":"20","admin1Name":"Irkutsk Oblast","admin1NameEn":"Irkutsk Oblast","countryName":"روسیه","population":243158,"tier":"major","isImportant":true},{"key":"russia_mar_ino","lat":55.65,"lon":37.71667,"name":"Mar’ino","nameEn":"Mar’ino","timezone":"Europe/Moscow","country":"RU","admin1":"48","admin1Name":"مسکو","admin1NameEn":"Moscow","countryName":"روسیه","population":243000,"tier":"major","isImportant":true,"aliases":["Mar'ino"]},{"key":"russia_novorossiysk","lat":44.73188,"lon":37.76176,"name":"Novorossiysk","nameEn":"Novorossiysk","timezone":"Europe/Moscow","country":"RU","admin1":"38","admin1Name":"Krasnodar Krai","admin1NameEn":"Krasnodar Krai","countryName":"روسیه","population":241856,"tier":"major","isImportant":true},{"key":"russia_nizhnekamsk","lat":55.63794,"lon":51.81502,"name":"Nizhnekamsk","nameEn":"Nizhnekamsk","timezone":"Europe/Moscow","country":"RU","admin1":"73","admin1Name":"Tatarstan Republic","admin1NameEn":"Tatarstan Republic","countryName":"روسیه","population":234297,"tier":"major","isImportant":true}]