[{"key":"turkey_province_istanbul","lat":41.01384,"lon":28.94966,"name":"استانبول","nameEn":"Istanbul","timezone":"Europe/Istanbul","country":"TR","admin1":"34","admin1Name":"استانبول","admin1NameEn":"Istanbul","countryName":"ترکیه","population":15701602,"tier":"province","isImportant":true},{"key":"turkey_province_ankara","lat":39.91987,"lon":32.85427,"name":"آنکارا","nameEn":"Ankara","timezone":"Europe/Istanbul","country":"TR","admin1":"68","admin1Name":"آنکارا","admin1NameEn":"Ankara","countryName":"ترکیه","population":3517182,"tier":"province","isImportant":true},{"key":"turkey_province_bursa_province","lat":40.19559,"lon":29.06013,"name":"Bursa Province","nameEn":"Bursa Province","timezone":"Europe/Istanbul","country":"TR","admin1":"16","admin1Name":"Bursa Province","admin1NameEn":"Bursa Province","countryName":"ترکیه","population":3101833,"tier":"province","isImportant":true},{"key":"turkey_province_izmir_province","lat":38.41273,"lon":27.13838,"name":"İzmir Province","nameEn":"İzmir Province","timezone":"Europe/Istanbul","country":"TR","admin1":"35","admin1Name":"İzmir Province","admin1NameEn":"İzmir Province","countryName":"ترکیه","population":2938292,"tier":"province","isImportant":true,"aliases":["Izmir"]},{"key":"turkey_province_gaziantep","lat":37.05944,"lon":37.3825,"name":"Gaziantep","nameEn":"Gaziantep","timezone":"Europe/Istanbul","country":"TR","admin1":"83","admin1Name":"Gaziantep","admin1NameEn":"Gaziantep","countryName":"ترکیه","population":2222415,"tier":"province","isImportant":true},{"key":"turkey_province_diyarbak_r_province","lat":37.91363,"lon":40.21721,"name":"Diyarbakır Province","nameEn":"Diyarbakır Province","timezone":"Europe/Istanbul","country":"TR","admin1":"21","admin1Name":"Diyarbakır Province","admin1NameEn":"Diyarbakır Province","countryName":"ترکیه","population":1833684,"tier":"province","isImportant":true,"aliases":["Diyarbakir"]},{"key":"turkey_province_adana","lat":36.98615,"lon":35.32531,"name":"آدانا","nameEn":"Adana","timezone":"Europe/Istanbul","country":"TR","admin1":"81","admin1Name":"آدانا","admin1NameEn":"Adana","countryName":"ترکیه","population":1816750,"tier":"province","isImportant":true},{"key":"turkey_province_kayseri","lat":38.73222,"lon":35.48528,"name":"Kayseri","nameEn":"Kayseri","timezone":"Europe/Istanbul","country":"TR","admin1":"38","admin1Name":"Kayseri","admin1NameEn":"Kayseri","countryName":"ترکیه","population":1452458,"tier":"province","isImportant":true},{"key":"turkey_province_konya","lat":37.87135,"lon":32.48464,"name":"Konya","nameEn":"Konya","timezone":"Europe/Istanbul","country":"TR","admin1":"71","admin1Name":"Konya","admin1NameEn":"Konya","countryName":"ترکیه","population":1433861,"tier":"province","isImportant":true},{"key":"turkey_province_antalya","lat":36.90812,"lon":30.69556,"name":"آنتالیا","nameEn":"Antalya","timezone":"Europe/Istanbul","country":"TR","admin1":"07","admin1Name":"آنتالیا","admin1NameEn":"Antalya","countryName":"ترکیه","population":1335002,"tier":"province","isImportant":true},{"key":"turkey_province_eskisehir","lat":39.77667,"lon":30.52056,"name":"Eskişehir","nameEn":"Eskişehir","timezone":"Europe/Istanbul","country":"TR","admin1":"26","admin1Name":"Eskişehir","admin1NameEn":"Eskişehir","countryName":"ترکیه","population":921630,"tier":"province","isImportant":true,"aliases":["Eskisehir"]},{"key":"turkey_province_erzurum","lat":39.90861,"lon":41.27694,"name":"Erzurum","nameEn":"Erzurum","timezone":"Europe/Istanbul","country":"TR","admin1":"25","admin1Name":"Erzurum","admin1NameEn":"Erzurum","countryName":"ترکیه","population":767848,"tier":"province","isImportant":true},{"key":"turkey_province_malatya","lat":38.35018,"lon":38.31667,"name":"Malatya","nameEn":"Malatya","timezone":"Europe/Istanbul","country":"TR","admin1":"44","admin1Name":"Malatya","admin1NameEn":"Malatya","countryName":"ترکیه","population":750491,"tier":"province","isImportant":true},{"key":"turkey_province_mersin","lat":36.81196,"lon":34.63886,"name":"Mersin","nameEn":"Mersin","timezone":"Europe/Istanbul","country":"TR","admin1":"32","admin1Name":"Mersin","admin1NameEn":"Mersin","countryName":"ترکیه","population":537842,"tier":"province","isImportant":true},{"key":"turkey_province_van","lat":38.49457,"lon":43.38323,"name":"Van","nameEn":"Van","timezone":"Europe/Istanbul","country":"TR","admin1":"65","admin1Name":"Van","admin1NameEn":"Van","countryName":"ترکیه","population":525016,"tier":"province","isImportant":true},{"key":"turkey_province_batman","lat":37.88738,"lon":41.13221,"name":"Batman","nameEn":"Batman","timezone":"Europe/Istanbul","country":"TR","admin1":"76","admin1Name":"Batman","admin1NameEn":"Batman","countryName":"ترکیه","population":452157,"tier":"province","isImportant":true},{"key":"turkey_province_sanl_urfa","lat":37.16708,"lon":38.79392,"name":"Şanlıurfa","nameEn":"Şanlıurfa","timezone":"Europe/Istanbul","country":"TR","admin1":"63","admin1Name":"Şanlıurfa","admin1NameEn":"Şanlıurfa","countryName":"ترکیه","population":449549,"tier":"province","isImportant":true,"aliases":["Sanliurfa"]},{"key":"turkey_province_elaz_g","lat":38.67431,"lon":39.22321,"name":"Elazığ","nameEn":"Elazığ","timezone":"Europe/Istanbul","country":"TR","admin1":"23","admin1Name":"Elazığ","admin1NameEn":"Elazığ","countryName":"ترکیه","population":443363,"tier":"province","isImportant":true,"aliases":["Elazig"]},{"key":"turkey_province_hatay","lat":36.20655,"lon":36.15722,"name":"Hatay","nameEn":"Hatay","timezone":"Europe/Istanbul","country":"TR","admin1":"31","admin1Name":"Hatay","admin1NameEn":"Hatay","countryName":"ترکیه","population":399045,"tier":"province","isImportant":true},{"key":"turkey_province_samsun","lat":41.27976,"lon":36.3361,"name":"Samsun","nameEn":"Samsun","timezone":"Europe/Istanbul","country":"TR","admin1":"55","admin1Name":"Samsun","admin1NameEn":"Samsun","countryName":"ترکیه","population":394050,"tier":"province","isImportant":true},{"key":"turkey_province_kahramanmaras","lat":37.5847,"lon":36.92641,"name":"Kahramanmaraş","nameEn":"Kahramanmaraş","timezone":"Europe/Istanbul","country":"TR","admin1":"46","admin1Name":"Kahramanmaraş","admin1NameEn":"Kahramanmaraş","countryName":"ترکیه","population":384953,"tier":"province","isImportant":true,"aliases":["Kahramanmaras"]},{"key":"turkey_province_usak","lat":38.67351,"lon":29.4058,"name":"Uşak","nameEn":"Uşak","timezone":"Europe/Istanbul","country":"TR","admin1":"64","admin1Name":"Uşak","admin1NameEn":"Uşak","countryName":"ترکیه","population":369433,"tier":"province","isImportant":true,"aliases":["Usak"]},{"key":"turkey_province_aksaray","lat":38.37255,"lon":34.02537,"name":"Aksaray","nameEn":"Aksaray","timezone":"Europe/Istanbul","country":"TR","admin1":"75","admin1Name":"Aksaray","admin1NameEn":"Aksaray","countryName":"ترکیه","population":327575,"tier":"province","isImportant":true},{"key":"turkey_province_denizli","lat":37.77417,"lon":29.0875,"name":"Denizli","nameEn":"Denizli","timezone":"Europe/Istanbul","country":"TR","admin1":"20","admin1Name":"Denizli","admin1NameEn":"Denizli","countryName":"ترکیه","population":313238,"tier":"province","isImportant":true},{"key":"turkey_province_ad_yaman_province","lat":37.76441,"lon":38.27629,"name":"Adıyaman Province","nameEn":"Adıyaman Province","timezone":"Europe/Istanbul","country":"TR","admin1":"02","admin1Name":"Adıyaman Province","admin1NameEn":"Adıyaman Province","countryName":"ترکیه","population":290883,"tier":"province","isImportant":true,"aliases":["Adiyaman"]},{"key":"turkey_province_sakarya","lat":40.78056,"lon":30.40333,"name":"Sakarya","nameEn":"Sakarya","timezone":"Europe/Istanbul","country":"TR","admin1":"54","admin1Name":"Sakarya","admin1NameEn":"Sakarya","countryName":"ترکیه","population":286787,"tier":"province","isImportant":true,"aliases":["Adapazari"]},{"key":"turkey_province_kocaeli","lat":40.80276,"lon":29.43068,"name":"Kocaeli","nameEn":"Kocaeli","timezone":"Europe/Istanbul","country":"TR","admin1":"41","admin1Name":"Kocaeli","admin1NameEn":"Kocaeli","countryName":"ترکیه","population":281436,"tier":"province","isImportant":true},{"key":"turkey_province_corum","lat":40.54889,"lon":34.95333,"name":"Çorum","nameEn":"Çorum","timezone":"Europe/Istanbul","country":"TR","admin1":"19","admin1Name":"Çorum","admin1NameEn":"Çorum","countryName":"ترکیه","population":269595,"tier":"province","isImportant":true,"aliases":["Corum"]},{"key":"turkey_province_sivas","lat":39.74833,"lon":37.01611,"name":"Sivas","nameEn":"Sivas","timezone":"Europe/Istanbul","country":"TR","admin1":"58","admin1Name":"Sivas","admin1NameEn":"Sivas","countryName":"ترکیه","population":264022,"tier":"province","isImportant":true},{"key":"turkey_province_afyonkarahisar_province","lat":38.75667,"lon":30.54333,"name":"Afyonkarahisar Province","nameEn":"Afyonkarahisar Province","timezone":"Europe/Istanbul","country":"TR","admin1":"03","admin1Name":"Afyonkarahisar Province","admin1NameEn":"Afyonkarahisar Province","countryName":"ترکیه","population":251799,"tier":"province","isImportant":true},{"key":"turkey_province_trabzon","lat":41.005,"lon":39.72694,"name":"Trabzon","nameEn":"Trabzon","timezone":"Europe/Istanbul","country":"TR","admin1":"61","admin1Name":"Trabzon","admin1NameEn":"Trabzon","countryName":"ترکیه","population":244083,"tier":"province","isImportant":true},{"key":"turkey_province_manisa","lat":38.61202,"lon":27.42647,"name":"Manisa","nameEn":"Manisa","timezone":"Europe/Istanbul","country":"TR","admin1":"45","admin1Name":"Manisa","admin1NameEn":"Manisa","countryName":"ترکیه","population":243971,"tier":"province","isImportant":true},{"key":"turkey_province_bal_kesir","lat":39.64917,"lon":27.88611,"name":"Balıkesir","nameEn":"Balıkesir","timezone":"Europe/Istanbul","country":"TR","admin1":"10","admin1Name":"Balıkesir","admin1NameEn":"Balıkesir","countryName":"ترکیه","population":238151,"tier":"province","isImportant":true,"aliases":["Balikesir"]},{"key":"turkey_province_ordu","lat":40.97782,"lon":37.89047,"name":"Ordu","nameEn":"Ordu","timezone":"Europe/Istanbul","country":"TR","admin1":"52","admin1Name":"Ordu","admin1NameEn":"Ordu","countryName":"ترکیه","population":229214,"tier":"province","isImportant":true},{"key":"turkey_province_osmaniye","lat":37.07417,"lon":36.24778,"name":"Osmaniye","nameEn":"Osmaniye","timezone":"Europe/Istanbul","country":"TR","admin1":"91","admin1Name":"Osmaniye","admin1NameEn":"Osmaniye","countryName":"ترکیه","population":202837,"tier":"province","isImportant":true},{"key":"turkey_province_tekirdag","lat":41.16069,"lon":27.80093,"name":"Tekirdağ","nameEn":"Tekirdağ","timezone":"Europe/Istanbul","country":"TR","admin1":"59","admin1Name":"Tekirdağ","admin1NameEn":"Tekirdağ","countryName":"ترکیه","population":202578,"tier":"province","isImportant":true,"aliases":["Corlu"]},{"key":"turkey_province_duzce","lat":40.83889,"lon":31.16389,"name":"Düzce","nameEn":"Düzce","timezone":"Europe/Istanbul","country":"TR","admin1":"93","admin1Name":"Düzce","admin1NameEn":"Düzce","countryName":"ترکیه","population":194097,"tier":"province","isImportant":true,"aliases":["Duezce"]},{"key":"turkey_province_k_r_kkale","lat":39.84528,"lon":33.50639,"name":"Kırıkkale","nameEn":"Kırıkkale","timezone":"Europe/Istanbul","country":"TR","admin1":"79","admin1Name":"Kırıkkale","admin1NameEn":"Kırıkkale","countryName":"ترکیه","population":186960,"tier":"province","isImportant":true,"aliases":["Kirikkale"]},{"key":"turkey_province_kutahya","lat":39.42417,"lon":29.98333,"name":"Kütahya","nameEn":"Kütahya","timezone":"Europe/Istanbul","country":"TR","admin1":"43","admin1Name":"Kütahya","admin1NameEn":"Kütahya","countryName":"ترکیه","population":185008,"tier":"province","isImportant":true,"aliases":["Kuetahya"]},{"key":"turkey_province_bolu","lat":40.73583,"lon":31.60611,"name":"Bolu","nameEn":"Bolu","timezone":"Europe/Istanbul","country":"TR","admin1":"14","admin1Name":"Bolu","admin1NameEn":"Bolu","countryName":"ترکیه","population":184682,"tier":"province","isImportant":true},{"key":"turkey_province_edirne","lat":41.67719,"lon":26.55597,"name":"Edirne","nameEn":"Edirne","timezone":"Europe/Istanbul","country":"TR","admin1":"22","admin1Name":"Edirne","admin1NameEn":"Edirne","countryName":"ترکیه","population":180002,"tier":"province","isImportant":true},{"key":"turkey_province_karaman","lat":37.18111,"lon":33.215,"name":"Karaman","nameEn":"Karaman","timezone":"Europe/Istanbul","country":"TR","admin1":"78","admin1Name":"Karaman","admin1NameEn":"Karaman","countryName":"ترکیه","population":175390,"tier":"province","isImportant":true},{"key":"turkey_province_isparta","lat":37.76444,"lon":30.55222,"name":"Isparta","nameEn":"Isparta","timezone":"Europe/Istanbul","country":"TR","admin1":"33","admin1Name":"Isparta","admin1NameEn":"Isparta","countryName":"ترکیه","population":172334,"tier":"province","isImportant":true},{"key":"turkey_province_ayd_n","lat":37.84501,"lon":27.83963,"name":"Aydın","nameEn":"Aydın","timezone":"Europe/Istanbul","country":"TR","admin1":"09","admin1Name":"Aydın","admin1NameEn":"Aydın","countryName":"ترکیه","population":163022,"tier":"province","isImportant":true,"aliases":["Aydin"]},{"key":"turkey_province_erzincan","lat":39.73919,"lon":39.49015,"name":"Erzincan","nameEn":"Erzincan","timezone":"Europe/Istanbul","country":"TR","admin1":"24","admin1Name":"Erzincan","admin1NameEn":"Erzincan","countryName":"ترکیه","population":150714,"tier":"province","isImportant":true},{"key":"turkey_province_k_rsehir","lat":39.14583,"lon":34.16389,"name":"Kırşehir","nameEn":"Kırşehir","timezone":"Europe/Istanbul","country":"TR","admin1":"40","admin1Name":"Kırşehir","admin1NameEn":"Kırşehir","countryName":"ترکیه","population":150700,"tier":"province","isImportant":true,"aliases":["Kirsehir"]},{"key":"turkey_province_mardin","lat":37.18836,"lon":40.57723,"name":"Mardin","nameEn":"Mardin","timezone":"Europe/Istanbul","country":"TR","admin1":"72","admin1Name":"Mardin","admin1NameEn":"Mardin","countryName":"ترکیه","population":150174,"tier":"province","isImportant":true,"aliases":["Kiziltepe"]},{"key":"turkey_province_canakkale","lat":40.15552,"lon":26.41271,"name":"Canakkale","nameEn":"Canakkale","timezone":"Europe/Istanbul","country":"TR","admin1":"17","admin1Name":"Canakkale","admin1NameEn":"Canakkale","countryName":"ترکیه","population":143622,"tier":"province","isImportant":true,"aliases":["Canakkale"]},{"key":"turkey_province_s_rnak","lat":37.33024,"lon":42.18484,"name":"Şırnak","nameEn":"Şırnak","timezone":"Europe/Istanbul","country":"TR","admin1":"80","admin1Name":"Şırnak","admin1NameEn":"Şırnak","countryName":"ترکیه","population":134041,"tier":"province","isImportant":true},{"key":"turkey_province_tokat_province","lat":40.31389,"lon":36.55444,"name":"Tokat Province","nameEn":"Tokat Province","timezone":"Europe/Istanbul","country":"TR","admin1":"60","admin1Name":"Tokat Province","admin1NameEn":"Tokat Province","countryName":"ترکیه","population":129702,"tier":"province","isImportant":true},{"key":"turkey_province_bingol","lat":38.88472,"lon":40.49389,"name":"Bingöl","nameEn":"Bingöl","timezone":"Europe/Istanbul","country":"TR","admin1":"12","admin1Name":"Bingöl","admin1NameEn":"Bingöl","countryName":"ترکیه","population":128935,"tier":"province","isImportant":true,"aliases":["Bingoel"]},{"key":"turkey_province_giresun","lat":40.91698,"lon":38.38741,"name":"Giresun","nameEn":"Giresun","timezone":"Europe/Istanbul","country":"TR","admin1":"28","admin1Name":"Giresun","admin1NameEn":"Giresun","countryName":"ترکیه","population":125682,"tier":"province","isImportant":true},{"key":"turkey_province_kastamonu","lat":41.37805,"lon":33.77528,"name":"Kastamonu","nameEn":"Kastamonu","timezone":"Europe/Istanbul","country":"TR","admin1":"37","admin1Name":"Kastamonu","admin1NameEn":"Kastamonu","countryName":"ترکیه","population":125622,"tier":"province","isImportant":true},{"key":"turkey_province_karabuk_province","lat":41.20488,"lon":32.62768,"name":"Karabük Province","nameEn":"Karabük Province","timezone":"Europe/Istanbul","country":"TR","admin1":"89","admin1Name":"Karabük Province","admin1NameEn":"Karabük Province","countryName":"ترکیه","population":125403,"tier":"province","isImportant":true,"aliases":["Karabuek"]},{"key":"turkey_province_agr","lat":39.71467,"lon":43.04015,"name":"Ağrı","nameEn":"Ağrı","timezone":"Europe/Istanbul","country":"TR","admin1":"04","admin1Name":"Ağrı","admin1NameEn":"Ağrı","countryName":"ترکیه","population":124483,"tier":"province","isImportant":true,"aliases":["Agri"]},{"key":"turkey_province_rize_province","lat":41.02083,"lon":40.52194,"name":"Rize Province","nameEn":"Rize Province","timezone":"Europe/Istanbul","country":"TR","admin1":"53","admin1Name":"Rize Province","admin1NameEn":"Rize Province","countryName":"ترکیه","population":119828,"tier":"province","isImportant":true},{"key":"turkey_province_amasya","lat":40.65333,"lon":35.83306,"name":"Amasya","nameEn":"Amasya","timezone":"Europe/Istanbul","country":"TR","admin1":"05","admin1Name":"Amasya","admin1NameEn":"Amasya","countryName":"ترکیه","population":114921,"tier":"province","isImportant":true},{"key":"turkey_province_siirt","lat":37.9293,"lon":41.94134,"name":"Siirt","nameEn":"Siirt","timezone":"Europe/Istanbul","country":"TR","admin1":"74","admin1Name":"Siirt","admin1NameEn":"Siirt","countryName":"ترکیه","population":114034,"tier":"province","isImportant":true},{"key":"turkey_province_kilis","lat":36.71611,"lon":37.115,"name":"Kilis","nameEn":"Kilis","timezone":"Europe/Istanbul","country":"TR","admin1":"90","admin1Name":"Kilis","admin1NameEn":"Kilis","countryName":"ترکیه","population":111648,"tier":"province","isImportant":true},{"key":"turkey_province_zonguldak_province","lat":41.45139,"lon":31.79305,"name":"Zonguldak Province","nameEn":"Zonguldak Province","timezone":"Europe/Istanbul","country":"TR","admin1":"85","admin1Name":"Zonguldak Province","admin1NameEn":"Zonguldak Province","countryName":"ترکیه","population":101749,"tier":"province","isImportant":true},{"key":"turkey_province_igd_r","lat":39.92371,"lon":44.045,"name":"Iğdır","nameEn":"Iğdır","timezone":"Europe/Istanbul","country":"TR","admin1":"88","admin1Name":"Iğdır","admin1NameEn":"Iğdır","countryName":"ترکیه","population":101700,"tier":"province","isImportant":true,"aliases":["Igdir"]},{"key":"turkey_province_burdur","lat":37.72028,"lon":30.29083,"name":"Burdur","nameEn":"Burdur","timezone":"Europe/Istanbul","country":"TR","admin1":"15","admin1Name":"Burdur","admin1NameEn":"Burdur","countryName":"ترکیه","population":95436,"tier":"province","isImportant":true},{"key":"turkey_province_mugla","lat":37.21807,"lon":28.3665,"name":"Muğla","nameEn":"Muğla","timezone":"Europe/Istanbul","country":"TR","admin1":"48","admin1Name":"Muğla","admin1NameEn":"Muğla","countryName":"ترکیه","population":92328,"tier":"province","isImportant":true,"aliases":["Mugla"]},{"key":"turkey_province_kars_province","lat":40.59825,"lon":43.08548,"name":"Kars Province","nameEn":"Kars Province","timezone":"Europe/Istanbul","country":"TR","admin1":"84","admin1Name":"Kars Province","admin1NameEn":"Kars Province","countryName":"ترکیه","population":91450,"tier":"province","isImportant":true},{"key":"turkey_province_nigde_province","lat":37.96583,"lon":34.67935,"name":"Niğde Province","nameEn":"Niğde Province","timezone":"Europe/Istanbul","country":"TR","admin1":"73","admin1Name":"Niğde Province","admin1NameEn":"Niğde Province","countryName":"ترکیه","population":91039,"tier":"province","isImportant":true,"aliases":["Nigde"]},{"key":"turkey_province_k_rklareli","lat":41.40173,"lon":27.35746,"name":"Kırklareli","nameEn":"Kırklareli","timezone":"Europe/Istanbul","country":"TR","admin1":"39","admin1Name":"Kırklareli","admin1NameEn":"Kırklareli","countryName":"ترکیه","population":90899,"tier":"province","isImportant":true,"aliases":["Lueleburgaz"]},{"key":"turkey_province_cank_r","lat":40.59995,"lon":33.6153,"name":"Çankırı","nameEn":"Çankırı","timezone":"Europe/Istanbul","country":"TR","admin1":"82","admin1Name":"Çankırı","admin1NameEn":"Çankırı","countryName":"ترکیه","population":90564,"tier":"province","isImportant":true,"aliases":["Cankiri"]},{"key":"turkey_province_yozgat","lat":39.82,"lon":34.80444,"name":"Yozgat","nameEn":"Yozgat","timezone":"Europe/Istanbul","country":"TR","admin1":"66","admin1Name":"Yozgat","admin1NameEn":"Yozgat","countryName":"ترکیه","population":87881,"tier":"province","isImportant":true},{"key":"turkey_province_tunceli","lat":38.94728,"lon":38.9423,"name":"Tunceli","nameEn":"Tunceli","timezone":"Europe/Istanbul","country":"TR","admin1":"62","admin1Name":"Tunceli","admin1NameEn":"Tunceli","countryName":"ترکیه","population":84366,"tier":"province","isImportant":true,"aliases":["Akcapinar"]},{"key":"turkey_province_mus","lat":38.73163,"lon":41.48482,"name":"Muş","nameEn":"Muş","timezone":"Europe/Istanbul","country":"TR","admin1":"49","admin1Name":"Muş","admin1NameEn":"Muş","countryName":"ترکیه","population":82536,"tier":"province","isImportant":true,"aliases":["Mus"]},{"key":"turkey_province_bart_n","lat":41.63583,"lon":32.3375,"name":"Bartın","nameEn":"Bartın","timezone":"Europe/Istanbul","country":"TR","admin1":"87","admin1Name":"Bartın","admin1NameEn":"Bartın","countryName":"ترکیه","population":81692,"tier":"province","isImportant":true,"aliases":["Bartin"]},{"key":"turkey_province_hakkari","lat":37.57444,"lon":43.74083,"name":"Hakkâri","nameEn":"Hakkâri","timezone":"Europe/Istanbul","country":"TR","admin1":"70","admin1Name":"Hakkâri","admin1NameEn":"Hakkâri","countryName":"ترکیه","population":77699,"tier":"province","isImportant":true,"aliases":["Hakkari"]},{"key":"turkey_province_nevsehir_province","lat":38.625,"lon":34.71222,"name":"Nevşehir Province","nameEn":"Nevşehir Province","timezone":"Europe/Istanbul","country":"TR","admin1":"50","admin1Name":"Nevşehir Province","admin1NameEn":"Nevşehir Province","countryName":"ترکیه","population":75527,"tier":"province","isImportant":true,"aliases":["Nevsehir"]},{"key":"turkey_province_bilecik","lat":40.14192,"lon":29.97932,"name":"Bilecik","nameEn":"Bilecik","timezone":"Europe/Istanbul","country":"TR","admin1":"11","admin1Name":"Bilecik","admin1NameEn":"Bilecik","countryName":"ترکیه","population":74457,"tier":"province","isImportant":true},{"key":"turkey_province_bitlis","lat":38.49221,"lon":42.28269,"name":"Bitlis","nameEn":"Bitlis","timezone":"Europe/Istanbul","country":"TR","admin1":"13","admin1Name":"Bitlis","admin1NameEn":"Bitlis","countryName":"ترکیه","population":73222,"tier":"province","isImportant":true},{"key":"turkey_province_yalova","lat":40.65501,"lon":29.27693,"name":"Yalova","nameEn":"Yalova","timezone":"Europe/Istanbul","country":"TR","admin1":"92","admin1Name":"Yalova","admin1NameEn":"Yalova","countryName":"ترکیه","population":71289,"tier":"province","isImportant":true},{"key":"turkey_province_bayburt_province","lat":40.25631,"lon":40.22289,"name":"Bayburt Province","nameEn":"Bayburt Province","timezone":"Europe/Istanbul","country":"TR","admin1":"77","admin1Name":"Bayburt Province","admin1NameEn":"Bayburt Province","countryName":"ترکیه","population":48036,"tier":"province","isImportant":true},{"key":"turkey_province_gumushane_province","lat":40.46001,"lon":39.47176,"name":"Gümüşhane Province","nameEn":"Gümüşhane Province","timezone":"Europe/Istanbul","country":"TR","admin1":"69","admin1Name":"Gümüşhane Province","admin1NameEn":"Gümüşhane Province","countryName":"ترکیه","population":39214,"tier":"province","isImportant":true,"aliases":["Guemueshane"]},{"key":"turkey_province_sinop","lat":42.02683,"lon":35.16253,"name":"Sinop","nameEn":"Sinop","timezone":"Europe/Istanbul","country":"TR","admin1":"57","admin1Name":"Sinop","admin1NameEn":"Sinop","countryName":"ترکیه","population":34834,"tier":"province","isImportant":true},{"key":"turkey_province_artvin","lat":41.18161,"lon":41.82172,"name":"Artvin","nameEn":"Artvin","timezone":"Europe/Istanbul","country":"TR","admin1":"08","admin1Name":"Artvin","admin1NameEn":"Artvin","countryName":"ترکیه","population":25841,"tier":"province","isImportant":true},{"key":"turkey_province_ardahan","lat":41.10871,"lon":42.70222,"name":"Ardahan","nameEn":"Ardahan","timezone":"Europe/Istanbul","country":"TR","admin1":"86","admin1Name":"Ardahan","admin1NameEn":"Ardahan","countryName":"ترکیه","population":22927,"tier":"province","isImportant":true},{"key":"turkey_esenyurt","lat":41.02697,"lon":28.67732,"name":"Esenyurt","nameEn":"Esenyurt","timezone":"Europe/Istanbul","country":"TR","admin1":"34","admin1Name":"استانبول","admin1NameEn":"Istanbul","countryName":"ترکیه","population":983571,"tier":"major","isImportant":true},{"key":"turkey_cankaya","lat":39.9179,"lon":32.86268,"name":"Çankaya","nameEn":"Çankaya","timezone":"Europe/Istanbul","country":"TR","admin1":"68","admin1Name":"آنکارا","admin1NameEn":"Ankara","countryName":"ترکیه","population":792189,"tier":"major","isImportant":true,"aliases":["Cankaya"]},{"key":"turkey_kuecuekcekmece","lat":40.99104,"lon":28.77123,"name":"Küçükçekmece","nameEn":"Küçükçekmece","timezone":"Europe/Istanbul","country":"TR","admin1":"34","admin1Name":"استانبول","admin1NameEn":"Istanbul","countryName":"ترکیه","population":792030,"tier":"major","isImportant":true,"aliases":["Kuecuekcekmece"]},{"key":"turkey_bagcilar","lat":41.03903,"lon":28.85671,"name":"Bağcılar","nameEn":"Bağcılar","timezone":"Europe/Istanbul","country":"TR","admin1":"34","admin1Name":"استانبول","admin1NameEn":"Istanbul","countryName":"ترکیه","population":740069,"tier":"major","isImportant":true,"aliases":["Bagcilar"]},{"key":"turkey_bahcelievler","lat":41.00231,"lon":28.8598,"name":"Bahçelievler","nameEn":"Bahçelievler","timezone":"Europe/Istanbul","country":"TR","admin1":"34","admin1Name":"استانبول","admin1NameEn":"Istanbul","countryName":"ترکیه","population":576799,"tier":"major","isImportant":true,"aliases":["Bahcelievler"]},{"key":"turkey_umraniye","lat":41.01643,"lon":29.12476,"name":"Umraniye","nameEn":"Umraniye","timezone":"Europe/Istanbul","country":"TR","admin1":"34","admin1Name":"استانبول","admin1NameEn":"Istanbul","countryName":"ترکیه","population":573265,"tier":"major","isImportant":true},{"key":"turkey_niluefer","lat":40.21401,"lon":28.91567,"name":"Nilüfer","nameEn":"Nilüfer","timezone":"Europe/Istanbul","country":"TR","admin1":"16","admin1Name":"Bursa Province","admin1NameEn":"Bursa Province","countryName":"ترکیه","population":536365,"tier":"major","isImportant":true,"aliases":["Niluefer"]},{"key":"turkey_ueskuedar","lat":41.02274,"lon":29.01366,"name":"Üsküdar","nameEn":"Üsküdar","timezone":"Europe/Istanbul","country":"TR","admin1":"34","admin1Name":"استانبول","admin1NameEn":"Istanbul","countryName":"ترکیه","population":524452,"tier":"major","isImportant":true,"aliases":["UEskuedar"]},{"key":"turkey_esenler","lat":41.0435,"lon":28.87619,"name":"Esenler","nameEn":"Esenler","timezone":"Europe/Istanbul","country":"TR","admin1":"34","admin1Name":"استانبول","admin1NameEn":"Istanbul","countryName":"ترکیه","population":520235,"tier":"major","isImportant":true},{"key":"turkey_sancaktepe","lat":41.00244,"lon":29.23187,"name":"Sancaktepe","nameEn":"Sancaktepe","timezone":"Europe/Istanbul","country":"TR","admin1":"34","admin1Name":"استانبول","admin1NameEn":"Istanbul","countryName":"ترکیه","population":489848,"tier":"major","isImportant":true},{"key":"turkey_karabaglar","lat":38.382,"lon":27.132,"name":"Karabağlar","nameEn":"Karabağlar","timezone":"Europe/Istanbul","country":"TR","admin1":"35","admin1Name":"İzmir Province","admin1NameEn":"İzmir Province","countryName":"ترکیه","population":479338,"tier":"major","isImportant":true,"aliases":["Karabaglar"]},{"key":"turkey_muratpasa","lat":36.89157,"lon":30.76498,"name":"Muratpaşa","nameEn":"Muratpaşa","timezone":"Europe/Istanbul","country":"TR","admin1":"07","admin1Name":"آنتالیا","admin1NameEn":"Antalya","countryName":"ترکیه","population":450000,"tier":"major","isImportant":true,"aliases":["Muratpasa"]},{"key":"turkey_sultangazi","lat":41.10652,"lon":28.86847,"name":"Sultangazi","nameEn":"Sultangazi","timezone":"Europe/Istanbul","country":"TR","admin1":"34","admin1Name":"استانبول","admin1NameEn":"Istanbul","countryName":"ترکیه","population":436935,"tier":"major","isImportant":true},{"key":"turkey_maltepe","lat":40.93567,"lon":29.15507,"name":"Maltepe","nameEn":"Maltepe","timezone":"Europe/Istanbul","country":"TR","admin1":"34","admin1Name":"استانبول","admin1NameEn":"Istanbul","countryName":"ترکیه","population":427040,"tier":"major","isImportant":true},{"key":"turkey_beylikduezue","lat":40.982,"lon":28.6399,"name":"Beylikdüzü","nameEn":"Beylikdüzü","timezone":"Europe/Istanbul","country":"TR","admin1":"34","admin1Name":"استانبول","admin1NameEn":"Istanbul","countryName":"ترکیه","population":415290,"tier":"major","isImportant":true,"aliases":["Beylikduezue"]},{"key":"turkey_alanya","lat":36.54375,"lon":31.99982,"name":"Alanya","nameEn":"Alanya","timezone":"Europe/Istanbul","country":"TR","admin1":"07","admin1Name":"آنتالیا","admin1NameEn":"Antalya","countryName":"ترکیه","population":364180,"tier":"major","isImportant":true},{"key":"turkey_atasehir","lat":40.9833,"lon":29.1167,"name":"Ataşehir","nameEn":"Ataşehir","timezone":"Europe/Istanbul","country":"TR","admin1":"34","admin1Name":"استانبول","admin1NameEn":"Istanbul","countryName":"ترکیه","population":361615,"tier":"major","isImportant":true,"aliases":["Atasehir"]},{"key":"turkey_sultanbeyli","lat":40.96072,"lon":29.27067,"name":"Sultanbeyli","nameEn":"Sultanbeyli","timezone":"Europe/Istanbul","country":"TR","admin1":"34","admin1Name":"استانبول","admin1NameEn":"Istanbul","countryName":"ترکیه","population":358201,"tier":"major","isImportant":true},{"key":"turkey_fatih","lat":41.0225,"lon":28.94083,"name":"Fatih","nameEn":"Fatih","timezone":"Europe/Istanbul","country":"TR","admin1":"34","admin1Name":"استانبول","admin1NameEn":"Istanbul","countryName":"ترکیه","population":356025,"tier":"major","isImportant":true},{"key":"turkey_tarsus","lat":36.91766,"lon":34.89277,"name":"Tarsus","nameEn":"Tarsus","timezone":"Europe/Istanbul","country":"TR","admin1":"32","admin1Name":"Mersin","admin1NameEn":"Mersin","countryName":"ترکیه","population":350732,"tier":"major","isImportant":true}]