[{"key":"turkey_istanbul","lat":41.01384,"lon":28.94966,"name":"استانبول","nameEn":"Istanbul","timezone":"Europe/Istanbul","country":"TR","admin1":"34","population":15701602},{"key":"turkey_ankara","lat":39.91987,"lon":32.85427,"name":"آنکارا","nameEn":"Ankara","timezone":"Europe/Istanbul","country":"TR","admin1":"68","population":3517182},{"key":"turkey_bursa","lat":40.19559,"lon":29.06013,"name":"بورسا","nameEn":"Bursa","timezone":"Europe/Istanbul","country":"TR","admin1":"16","population":3101833},{"key":"turkey_izmir","lat":38.41273,"lon":27.13838,"name":"ازمیر","nameEn":"İzmir","timezone":"Europe/Istanbul","country":"TR","admin1":"35","population":2938292,"aliases":["Izmir"]},{"key":"turkey_gaziantep","lat":37.05944,"lon":37.3825,"name":"Gaziantep","nameEn":"Gaziantep","timezone":"Europe/Istanbul","country":"TR","admin1":"83","population":2222415},{"key":"turkey_diyarbakir","lat":37.91363,"lon":40.21721,"name":"Diyarbakır","nameEn":"Diyarbakır","timezone":"Europe/Istanbul","country":"TR","admin1":"21","population":1833684,"aliases":["Diyarbakir"]},{"key":"turkey_adana","lat":36.98615,"lon":35.32531,"name":"Adana","nameEn":"Adana","timezone":"Europe/Istanbul","country":"TR","admin1":"81","population":1816750},{"key":"turkey_kayseri","lat":38.73222,"lon":35.48528,"name":"Kayseri","nameEn":"Kayseri","timezone":"Europe/Istanbul","country":"TR","admin1":"38","population":1452458},{"key":"turkey_konya","lat":37.87135,"lon":32.48464,"name":"Konya","nameEn":"Konya","timezone":"Europe/Istanbul","country":"TR","admin1":"71","population":1433861},{"key":"turkey_antalya","lat":36.90812,"lon":30.69556,"name":"آنتالیا","nameEn":"Antalya","timezone":"Europe/Istanbul","country":"TR","admin1":"07","population":1335002},{"key":"turkey_esenyurt","lat":41.02697,"lon":28.67732,"name":"Esenyurt","nameEn":"Esenyurt","timezone":"Europe/Istanbul","country":"TR","admin1":"34","population":983571},{"key":"turkey_eskisehir","lat":39.77667,"lon":30.52056,"name":"Eskişehir","nameEn":"Eskişehir","timezone":"Europe/Istanbul","country":"TR","admin1":"26","population":921630,"aliases":["Eskisehir"]},{"key":"turkey_cankaya","lat":39.9179,"lon":32.86268,"name":"Çankaya","nameEn":"Çankaya","timezone":"Europe/Istanbul","country":"TR","admin1":"68","population":792189,"aliases":["Cankaya"]},{"key":"turkey_kuecuekcekmece","lat":40.99104,"lon":28.77123,"name":"Küçükçekmece","nameEn":"Küçükçekmece","timezone":"Europe/Istanbul","country":"TR","admin1":"34","population":792030,"aliases":["Kuecuekcekmece"]},{"key":"turkey_erzurum","lat":39.90861,"lon":41.27694,"name":"Erzurum","nameEn":"Erzurum","timezone":"Europe/Istanbul","country":"TR","admin1":"25","population":767848},{"key":"turkey_malatya","lat":38.35018,"lon":38.31667,"name":"Malatya","nameEn":"Malatya","timezone":"Europe/Istanbul","country":"TR","admin1":"44","population":750491},{"key":"turkey_bagcilar","lat":41.03903,"lon":28.85671,"name":"Bağcılar","nameEn":"Bağcılar","timezone":"Europe/Istanbul","country":"TR","admin1":"34","population":740069,"aliases":["Bagcilar"]},{"key":"turkey_bahcelievler","lat":41.00231,"lon":28.8598,"name":"Bahçelievler","nameEn":"Bahçelievler","timezone":"Europe/Istanbul","country":"TR","admin1":"34","population":576799,"aliases":["Bahcelievler"]},{"key":"turkey_umraniye","lat":41.01643,"lon":29.12476,"name":"Umraniye","nameEn":"Umraniye","timezone":"Europe/Istanbul","country":"TR","admin1":"34","population":573265},{"key":"turkey_mersin","lat":36.81196,"lon":34.63886,"name":"Mersin","nameEn":"Mersin","timezone":"Europe/Istanbul","country":"TR","admin1":"32","population":537842},{"key":"turkey_niluefer","lat":40.21401,"lon":28.91567,"name":"Nilüfer","nameEn":"Nilüfer","timezone":"Europe/Istanbul","country":"TR","admin1":"16","population":536365,"aliases":["Niluefer"]},{"key":"turkey_van","lat":38.49457,"lon":43.38323,"name":"Van","nameEn":"Van","timezone":"Europe/Istanbul","country":"TR","admin1":"65","population":525016},{"key":"turkey_ueskuedar","lat":41.02274,"lon":29.01366,"name":"Üsküdar","nameEn":"Üsküdar","timezone":"Europe/Istanbul","country":"TR","admin1":"34","population":524452,"aliases":["UEskuedar"]},{"key":"turkey_esenler","lat":41.0435,"lon":28.87619,"name":"Esenler","nameEn":"Esenler","timezone":"Europe/Istanbul","country":"TR","admin1":"34","population":520235},{"key":"turkey_sancaktepe","lat":41.00244,"lon":29.23187,"name":"Sancaktepe","nameEn":"Sancaktepe","timezone":"Europe/Istanbul","country":"TR","admin1":"34","population":489848},{"key":"turkey_karabaglar","lat":38.382,"lon":27.132,"name":"Karabağlar","nameEn":"Karabağlar","timezone":"Europe/Istanbul","country":"TR","admin1":"35","population":479338,"aliases":["Karabaglar"]},{"key":"turkey_batman","lat":37.88738,"lon":41.13221,"name":"Batman","nameEn":"Batman","timezone":"Europe/Istanbul","country":"TR","admin1":"76","population":452157},{"key":"turkey_muratpasa","lat":36.89157,"lon":30.76498,"name":"Muratpaşa","nameEn":"Muratpaşa","timezone":"Europe/Istanbul","country":"TR","admin1":"07","population":450000,"aliases":["Muratpasa"]},{"key":"turkey_sanliurfa","lat":37.16708,"lon":38.79392,"name":"Şanlıurfa","nameEn":"Şanlıurfa","timezone":"Europe/Istanbul","country":"TR","admin1":"63","population":449549,"aliases":["Sanliurfa"]},{"key":"turkey_elazig","lat":38.67431,"lon":39.22321,"name":"Elazığ","nameEn":"Elazığ","timezone":"Europe/Istanbul","country":"TR","admin1":"23","population":443363,"aliases":["Elazig"]},{"key":"turkey_sultangazi","lat":41.10652,"lon":28.86847,"name":"Sultangazi","nameEn":"Sultangazi","timezone":"Europe/Istanbul","country":"TR","admin1":"34","population":436935},{"key":"turkey_maltepe","lat":40.93567,"lon":29.15507,"name":"Maltepe","nameEn":"Maltepe","timezone":"Europe/Istanbul","country":"TR","admin1":"34","population":427040},{"key":"turkey_beylikduezue","lat":40.982,"lon":28.6399,"name":"Beylikdüzü","nameEn":"Beylikdüzü","timezone":"Europe/Istanbul","country":"TR","admin1":"34","population":415290,"aliases":["Beylikduezue"]},{"key":"turkey_antakya","lat":36.20655,"lon":36.15722,"name":"Antakya","nameEn":"Antakya","timezone":"Europe/Istanbul","country":"TR","admin1":"31","population":399045},{"key":"turkey_samsun","lat":41.27976,"lon":36.3361,"name":"Samsun","nameEn":"Samsun","timezone":"Europe/Istanbul","country":"TR","admin1":"55","population":394050},{"key":"turkey_kahramanmaras","lat":37.5847,"lon":36.92641,"name":"Kahramanmaraş","nameEn":"Kahramanmaraş","timezone":"Europe/Istanbul","country":"TR","admin1":"46","population":384953,"aliases":["Kahramanmaras"]},{"key":"turkey_usak","lat":38.67351,"lon":29.4058,"name":"Uşak","nameEn":"Uşak","timezone":"Europe/Istanbul","country":"TR","admin1":"64","population":369433,"aliases":["Usak"]},{"key":"turkey_alanya","lat":36.54375,"lon":31.99982,"name":"Alanya","nameEn":"Alanya","timezone":"Europe/Istanbul","country":"TR","admin1":"07","population":364180},{"key":"turkey_atasehir","lat":40.9833,"lon":29.1167,"name":"Ataşehir","nameEn":"Ataşehir","timezone":"Europe/Istanbul","country":"TR","admin1":"34","population":361615,"aliases":["Atasehir"]},{"key":"turkey_sultanbeyli","lat":40.96072,"lon":29.27067,"name":"Sultanbeyli","nameEn":"Sultanbeyli","timezone":"Europe/Istanbul","country":"TR","admin1":"34","population":358201},{"key":"turkey_fatih","lat":41.0225,"lon":28.94083,"name":"Fatih","nameEn":"Fatih","timezone":"Europe/Istanbul","country":"TR","admin1":"34","population":356025},{"key":"turkey_tarsus","lat":36.91766,"lon":34.89277,"name":"Tarsus","nameEn":"Tarsus","timezone":"Europe/Istanbul","country":"TR","admin1":"32","population":350732},{"key":"turkey_karsiyaka","lat":38.45772,"lon":27.1142,"name":"Karşıyaka","nameEn":"Karşıyaka","timezone":"Europe/Istanbul","country":"TR","admin1":"35","population":339624,"aliases":["Karsiyaka"]},{"key":"turkey_konak","lat":38.4,"lon":27.1,"name":"Konak","nameEn":"Konak","timezone":"Europe/Istanbul","country":"TR","admin1":"35","population":332277},{"key":"turkey_aksaray","lat":38.37255,"lon":34.02537,"name":"Aksaray","nameEn":"Aksaray","timezone":"Europe/Istanbul","country":"TR","admin1":"75","population":327575},{"key":"turkey_sisli","lat":41.06046,"lon":28.98717,"name":"Şişli","nameEn":"Şişli","timezone":"Europe/Istanbul","country":"TR","admin1":"34","population":314684,"aliases":["Sisli"]},{"key":"turkey_denizli","lat":37.77417,"lon":29.0875,"name":"Denizli","nameEn":"Denizli","timezone":"Europe/Istanbul","country":"TR","admin1":"20","population":313238},{"key":"turkey_batikent","lat":39.96833,"lon":32.73083,"name":"Batikent","nameEn":"Batikent","timezone":"Europe/Istanbul","country":"TR","admin1":"68","population":300000},{"key":"turkey_adiyaman","lat":37.76441,"lon":38.27629,"name":"Adıyaman","nameEn":"Adıyaman","timezone":"Europe/Istanbul","country":"TR","admin1":"02","population":290883,"aliases":["Adiyaman"]},{"key":"turkey_adapazari","lat":40.78056,"lon":30.40333,"name":"Adapazarı","nameEn":"Adapazarı","timezone":"Europe/Istanbul","country":"TR","admin1":"54","population":286787,"aliases":["Adapazari"]},{"key":"turkey_gebze","lat":40.80276,"lon":29.43068,"name":"Gebze","nameEn":"Gebze","timezone":"Europe/Istanbul","country":"TR","admin1":"41","population":281436},{"key":"turkey_zeytinburnu","lat":40.99441,"lon":28.90417,"name":"Zeytinburnu","nameEn":"Zeytinburnu","timezone":"Europe/Istanbul","country":"TR","admin1":"34","population":280896},{"key":"turkey_merkezefendi","lat":37.80544,"lon":29.04236,"name":"Merkezefendi","nameEn":"Merkezefendi","timezone":"Europe/Istanbul","country":"TR","admin1":"20","population":280341},{"key":"turkey_corum","lat":40.54889,"lon":34.95333,"name":"Çorum","nameEn":"Çorum","timezone":"Europe/Istanbul","country":"TR","admin1":"19","population":269595,"aliases":["Corum"]},{"key":"turkey_sivas","lat":39.74833,"lon":37.01611,"name":"Sivas","nameEn":"Sivas","timezone":"Europe/Istanbul","country":"TR","admin1":"58","population":264022},{"key":"turkey_afyonkarahisar","lat":38.75667,"lon":30.54333,"name":"Afyonkarahisar","nameEn":"Afyonkarahisar","timezone":"Europe/Istanbul","country":"TR","admin1":"03","population":251799},{"key":"turkey_iskenderun","lat":36.58718,"lon":36.17347,"name":"İskenderun","nameEn":"İskenderun","timezone":"Europe/Istanbul","country":"TR","admin1":"31","population":251682,"aliases":["Iskenderun"]},{"key":"turkey_trabzon","lat":41.005,"lon":39.72694,"name":"Trabzon","nameEn":"Trabzon","timezone":"Europe/Istanbul","country":"TR","admin1":"61","population":244083},{"key":"turkey_manisa","lat":38.61202,"lon":27.42647,"name":"Manisa","nameEn":"Manisa","timezone":"Europe/Istanbul","country":"TR","admin1":"45","population":243971},{"key":"turkey_balikesir","lat":39.64917,"lon":27.88611,"name":"Balıkesir","nameEn":"Balıkesir","timezone":"Europe/Istanbul","country":"TR","admin1":"10","population":238151,"aliases":["Balikesir"]},{"key":"turkey_ordu","lat":40.97782,"lon":37.89047,"name":"Ordu","nameEn":"Ordu","timezone":"Europe/Istanbul","country":"TR","admin1":"52","population":229214},{"key":"turkey_cigli","lat":38.49645,"lon":27.07029,"name":"Çiğli","nameEn":"Çiğli","timezone":"Europe/Istanbul","country":"TR","admin1":"35","population":214065,"aliases":["Cigli"]},{"key":"turkey_osmaniye","lat":37.07417,"lon":36.24778,"name":"Osmaniye","nameEn":"Osmaniye","timezone":"Europe/Istanbul","country":"TR","admin1":"91","population":202837},{"key":"turkey_corlu","lat":41.16069,"lon":27.80093,"name":"Çorlu","nameEn":"Çorlu","timezone":"Europe/Istanbul","country":"TR","admin1":"59","population":202578,"aliases":["Corlu"]},{"key":"turkey_arnavutkoey","lat":41.18355,"lon":28.7402,"name":"Arnavutköy","nameEn":"Arnavutköy","timezone":"Europe/Istanbul","country":"TR","admin1":"34","population":198165,"aliases":["Arnavutkoey"]},{"key":"turkey_izmit","lat":40.76499,"lon":29.92928,"name":"İzmit","nameEn":"İzmit","timezone":"Europe/Istanbul","country":"TR","admin1":"41","population":196571,"aliases":["Izmit"]},{"key":"turkey_duezce","lat":40.83889,"lon":31.16389,"name":"Düzce","nameEn":"Düzce","timezone":"Europe/Istanbul","country":"TR","admin1":"93","population":194097,"aliases":["Duezce"]},{"key":"turkey_basaksehir","lat":41.106,"lon":28.791,"name":"Başakşehir","nameEn":"Başakşehir","timezone":"Europe/Istanbul","country":"TR","admin1":"34","population":193750,"aliases":["Basaksehir"]},{"key":"turkey_kirikkale","lat":39.84528,"lon":33.50639,"name":"Kırıkkale","nameEn":"Kırıkkale","timezone":"Europe/Istanbul","country":"TR","admin1":"79","population":186960,"aliases":["Kirikkale"]},{"key":"turkey_kuetahya","lat":39.42417,"lon":29.98333,"name":"Kütahya","nameEn":"Kütahya","timezone":"Europe/Istanbul","country":"TR","admin1":"43","population":185008,"aliases":["Kuetahya"]},{"key":"turkey_bolu","lat":40.73583,"lon":31.60611,"name":"Bolu","nameEn":"Bolu","timezone":"Europe/Istanbul","country":"TR","admin1":"14","population":184682},{"key":"turkey_edirne","lat":41.67719,"lon":26.55597,"name":"Edirne","nameEn":"Edirne","timezone":"Europe/Istanbul","country":"TR","admin1":"22","population":180002},{"key":"turkey_karaman","lat":37.18111,"lon":33.215,"name":"Karaman","nameEn":"Karaman","timezone":"Europe/Istanbul","country":"TR","admin1":"78","population":175390},{"key":"turkey_siverek","lat":37.75503,"lon":39.31667,"name":"Siverek","nameEn":"Siverek","timezone":"Europe/Istanbul","country":"TR","admin1":"63","population":175341},{"key":"turkey_isparta","lat":37.76444,"lon":30.55222,"name":"Isparta","nameEn":"Isparta","timezone":"Europe/Istanbul","country":"TR","admin1":"33","population":172334},{"key":"turkey_goelbasi","lat":39.79043,"lon":32.80903,"name":"Gölbaşı","nameEn":"Gölbaşı","timezone":"Europe/Istanbul","country":"TR","admin1":"68","population":165201,"aliases":["Goelbasi"]},{"key":"turkey_bueyuekcekmece","lat":41.02072,"lon":28.58502,"name":"Büyükçekmece","nameEn":"Büyükçekmece","timezone":"Europe/Istanbul","country":"TR","admin1":"34","population":163140,"aliases":["Bueyuekcekmece"]},{"key":"turkey_aydin","lat":37.84501,"lon":27.83963,"name":"Aydın","nameEn":"Aydın","timezone":"Europe/Istanbul","country":"TR","admin1":"09","population":163022,"aliases":["Aydin"]},{"key":"turkey_eregli","lat":37.51333,"lon":34.04672,"name":"Ereğli","nameEn":"Ereğli","timezone":"Europe/Istanbul","country":"TR","admin1":"71","population":156253,"aliases":["Eregli"]},{"key":"turkey_viransehir","lat":37.22349,"lon":39.75519,"name":"Viranşehir","nameEn":"Viranşehir","timezone":"Europe/Istanbul","country":"TR","admin1":"63","population":154163,"aliases":["Viransehir"]},{"key":"turkey_erzincan","lat":39.73919,"lon":39.49015,"name":"Erzincan","nameEn":"Erzincan","timezone":"Europe/Istanbul","country":"TR","admin1":"24","population":150714},{"key":"turkey_kirsehir","lat":39.14583,"lon":34.16389,"name":"Kırşehir","nameEn":"Kırşehir","timezone":"Europe/Istanbul","country":"TR","admin1":"40","population":150700,"aliases":["Kirsehir"]},{"key":"turkey_kiziltepe","lat":37.18836,"lon":40.57723,"name":"Kızıltepe","nameEn":"Kızıltepe","timezone":"Europe/Istanbul","country":"TR","admin1":"72","population":150174,"aliases":["Kiziltepe"]},{"key":"turkey_canakkale","lat":40.15552,"lon":26.41271,"name":"Çanakkale","nameEn":"Çanakkale","timezone":"Europe/Istanbul","country":"TR","admin1":"17","population":143622,"aliases":["Canakkale"]},{"key":"turkey_cizre","lat":37.33024,"lon":42.18484,"name":"Cizre","nameEn":"Cizre","timezone":"Europe/Istanbul","country":"TR","admin1":"80","population":134041},{"key":"turkey_inegol","lat":40.07806,"lon":29.51333,"name":"İnegol","nameEn":"İnegol","timezone":"Europe/Istanbul","country":"TR","admin1":"16","population":133959,"aliases":["Inegol"]},{"key":"turkey_silifke","lat":36.37778,"lon":33.93444,"name":"Silifke","nameEn":"Silifke","timezone":"Europe/Istanbul","country":"TR","admin1":"32","population":132665},{"key":"turkey_mardin","lat":37.31309,"lon":40.74357,"name":"Mardin","nameEn":"Mardin","timezone":"Europe/Istanbul","country":"TR","admin1":"72","population":129864},{"key":"turkey_tokat","lat":40.31389,"lon":36.55444,"name":"Tokat","nameEn":"Tokat","timezone":"Europe/Istanbul","country":"TR","admin1":"60","population":129702},{"key":"turkey_bingoel","lat":38.88472,"lon":40.49389,"name":"Bingöl","nameEn":"Bingöl","timezone":"Europe/Istanbul","country":"TR","admin1":"12","population":128935,"aliases":["Bingoel"]},{"key":"turkey_giresun","lat":40.91698,"lon":38.38741,"name":"Giresun","nameEn":"Giresun","timezone":"Europe/Istanbul","country":"TR","admin1":"28","population":125682},{"key":"turkey_kastamonu","lat":41.37805,"lon":33.77528,"name":"Kastamonu","nameEn":"Kastamonu","timezone":"Europe/Istanbul","country":"TR","admin1":"37","population":125622},{"key":"turkey_derince","lat":40.75694,"lon":29.81472,"name":"Derince","nameEn":"Derince","timezone":"Europe/Istanbul","country":"TR","admin1":"41","population":125485},{"key":"turkey_karabuek","lat":41.20488,"lon":32.62768,"name":"Karabük","nameEn":"Karabük","timezone":"Europe/Istanbul","country":"TR","admin1":"89","population":125403,"aliases":["Karabuek"]},{"key":"turkey_agri","lat":39.71467,"lon":43.04015,"name":"Ağrı","nameEn":"Ağrı","timezone":"Europe/Istanbul","country":"TR","admin1":"04","population":124483,"aliases":["Agri"]},{"key":"turkey_samandag","lat":36.08012,"lon":35.97603,"name":"Samandağ","nameEn":"Samandağ","timezone":"Europe/Istanbul","country":"TR","admin1":"31","population":123447,"aliases":["Samandag"]},{"key":"turkey_tekirdag","lat":40.9781,"lon":27.51101,"name":"Tekirdağ","nameEn":"Tekirdağ","timezone":"Europe/Istanbul","country":"TR","admin1":"59","population":122287,"aliases":["Tekirdag"]},{"key":"turkey_rize","lat":41.02083,"lon":40.52194,"name":"Rize","nameEn":"Rize","timezone":"Europe/Istanbul","country":"TR","admin1":"53","population":119828},{"key":"turkey_nazilli","lat":37.91631,"lon":28.32225,"name":"Nazilli","nameEn":"Nazilli","timezone":"Europe/Istanbul","country":"TR","admin1":"09","population":119370},{"key":"turkey_salihli","lat":38.48258,"lon":28.14774,"name":"Salihli","nameEn":"Salihli","timezone":"Europe/Istanbul","country":"TR","admin1":"45","population":119311},{"key":"turkey_amasya","lat":40.65333,"lon":35.83306,"name":"Amasya","nameEn":"Amasya","timezone":"Europe/Istanbul","country":"TR","admin1":"05","population":114921},{"key":"turkey_silopi","lat":37.24379,"lon":42.46345,"name":"Silopi","nameEn":"Silopi","timezone":"Europe/Istanbul","country":"TR","admin1":"80","population":114645},{"key":"turkey_siirt","lat":37.9293,"lon":41.94134,"name":"Siirt","nameEn":"Siirt","timezone":"Europe/Istanbul","country":"TR","admin1":"74","population":114034},{"key":"turkey_kilis","lat":36.71611,"lon":37.115,"name":"Kilis","nameEn":"Kilis","timezone":"Europe/Istanbul","country":"TR","admin1":"90","population":111648},{"key":"turkey_turhal","lat":40.3875,"lon":36.08111,"name":"Turhal","nameEn":"Turhal","timezone":"Europe/Istanbul","country":"TR","admin1":"60","population":110884},{"key":"turkey_arsuz","lat":36.41305,"lon":35.89033,"name":"Arsuz","nameEn":"Arsuz","timezone":"Europe/Istanbul","country":"TR","admin1":"31","population":109550},{"key":"turkey_bandirma","lat":40.35222,"lon":27.97667,"name":"Bandırma","nameEn":"Bandırma","timezone":"Europe/Istanbul","country":"TR","admin1":"10","population":107631,"aliases":["Bandirma"]},{"key":"turkey_turgutlu","lat":38.49533,"lon":27.6997,"name":"Turgutlu","nameEn":"Turgutlu","timezone":"Europe/Istanbul","country":"TR","admin1":"45","population":103292},{"key":"turkey_zonguldak","lat":41.45139,"lon":31.79305,"name":"Zonguldak","nameEn":"Zonguldak","timezone":"Europe/Istanbul","country":"TR","admin1":"85","population":101749},{"key":"turkey_igdir","lat":39.92371,"lon":44.045,"name":"Iğdır","nameEn":"Iğdır","timezone":"Europe/Istanbul","country":"TR","admin1":"88","population":101700,"aliases":["Igdir"]},{"key":"turkey_mustafakemalpasa","lat":40.03815,"lon":28.40866,"name":"Mustafakemalpaşa","nameEn":"Mustafakemalpaşa","timezone":"Europe/Istanbul","country":"TR","admin1":"16","population":101412,"aliases":["Mustafakemalpasa"]},{"key":"turkey_suruc","lat":36.97612,"lon":38.42533,"name":"Suruç","nameEn":"Suruç","timezone":"Europe/Istanbul","country":"TR","admin1":"63","population":101178,"aliases":["Suruc"]},{"key":"turkey_manavgat","lat":36.78672,"lon":31.44086,"name":"Manavgat","nameEn":"Manavgat","timezone":"Europe/Istanbul","country":"TR","admin1":"07","population":99254},{"key":"turkey_soma","lat":39.18554,"lon":27.60945,"name":"Soma","nameEn":"Soma","timezone":"Europe/Istanbul","country":"TR","admin1":"45","population":98714},{"key":"turkey_kahta","lat":37.78552,"lon":38.6237,"name":"Kâhta","nameEn":"Kâhta","timezone":"Europe/Istanbul","country":"TR","admin1":"02","population":97875,"aliases":["Kahta"]},{"key":"turkey_ceyhan","lat":37.02472,"lon":35.8175,"name":"Ceyhan","nameEn":"Ceyhan","timezone":"Europe/Istanbul","country":"TR","admin1":"81","population":96303},{"key":"turkey_burdur","lat":37.72028,"lon":30.29083,"name":"Burdur","nameEn":"Burdur","timezone":"Europe/Istanbul","country":"TR","admin1":"15","population":95436},{"key":"turkey_polatli","lat":39.57715,"lon":32.14132,"name":"Polatlı","nameEn":"Polatlı","timezone":"Europe/Istanbul","country":"TR","admin1":"68","population":93262,"aliases":["Polatli"]},{"key":"turkey_bafra","lat":41.56787,"lon":35.90311,"name":"Bafra","nameEn":"Bafra","timezone":"Europe/Istanbul","country":"TR","admin1":"55","population":92944},{"key":"turkey_mugla","lat":37.21807,"lon":28.3665,"name":"Muğla","nameEn":"Muğla","timezone":"Europe/Istanbul","country":"TR","admin1":"48","population":92328,"aliases":["Mugla"]},{"key":"turkey_ercis","lat":39.02587,"lon":43.35964,"name":"Erciş","nameEn":"Erciş","timezone":"Europe/Istanbul","country":"TR","admin1":"65","population":91915,"aliases":["Ercis"]},{"key":"turkey_kars","lat":40.59825,"lon":43.08548,"name":"Kars","nameEn":"Kars","timezone":"Europe/Istanbul","country":"TR","admin1":"84","population":91450},{"key":"turkey_nigde","lat":37.96583,"lon":34.67935,"name":"Niğde","nameEn":"Niğde","timezone":"Europe/Istanbul","country":"TR","admin1":"73","population":91039,"aliases":["Nigde"]},{"key":"turkey_lueleburgaz","lat":41.40173,"lon":27.35746,"name":"Lüleburgaz","nameEn":"Lüleburgaz","timezone":"Europe/Istanbul","country":"TR","admin1":"39","population":90899,"aliases":["Lueleburgaz"]},{"key":"turkey_koerfez","lat":40.76704,"lon":29.78275,"name":"Körfez","nameEn":"Körfez","timezone":"Europe/Istanbul","country":"TR","admin1":"41","population":90580,"aliases":["Koerfez"]},{"key":"turkey_cankiri","lat":40.59995,"lon":33.6153,"name":"Çankırı","nameEn":"Çankırı","timezone":"Europe/Istanbul","country":"TR","admin1":"82","population":90564,"aliases":["Cankiri"]},{"key":"turkey_nusaybin","lat":37.07028,"lon":41.21465,"name":"Nusaybin","nameEn":"Nusaybin","timezone":"Europe/Istanbul","country":"TR","admin1":"72","population":88977},{"key":"turkey_eregli_2","lat":41.28261,"lon":31.41806,"name":"Ereğli","nameEn":"Ereğli","timezone":"Europe/Istanbul","country":"TR","admin1":"85","population":88848,"aliases":["Eregli"]},{"key":"turkey_kozan","lat":37.45517,"lon":35.81573,"name":"Kozan","nameEn":"Kozan","timezone":"Europe/Istanbul","country":"TR","admin1":"81","population":88115},{"key":"turkey_yozgat","lat":39.82,"lon":34.80444,"name":"Yozgat","nameEn":"Yozgat","timezone":"Europe/Istanbul","country":"TR","admin1":"66","population":87881},{"key":"turkey_patnos","lat":39.22493,"lon":42.85693,"name":"Patnos","nameEn":"Patnos","timezone":"Europe/Istanbul","country":"TR","admin1":"04","population":87451},{"key":"turkey_akhisar","lat":38.91852,"lon":27.84006,"name":"Akhisar","nameEn":"Akhisar","timezone":"Europe/Istanbul","country":"TR","admin1":"45","population":84659},{"key":"turkey_akcapinar","lat":38.94728,"lon":38.9423,"name":"Akçapınar","nameEn":"Akçapınar","timezone":"Europe/Istanbul","country":"TR","admin1":"62","population":84366,"aliases":["Akcapinar"]},{"key":"turkey_cerkezkoey","lat":41.28629,"lon":27.99939,"name":"Çerkezköy","nameEn":"Çerkezköy","timezone":"Europe/Istanbul","country":"TR","admin1":"59","population":84234,"aliases":["Cerkezkoey"]},{"key":"turkey_mus","lat":38.73163,"lon":41.48482,"name":"Muş","nameEn":"Muş","timezone":"Europe/Istanbul","country":"TR","admin1":"49","population":82536,"aliases":["Mus"]},{"key":"turkey_nizip","lat":37.00972,"lon":37.79417,"name":"Nizip","nameEn":"Nizip","timezone":"Europe/Istanbul","country":"TR","admin1":"83","population":82308},{"key":"turkey_fatsa","lat":41.02886,"lon":37.49977,"name":"Fatsa","nameEn":"Fatsa","timezone":"Europe/Istanbul","country":"TR","admin1":"52","population":82160},{"key":"turkey_bartin","lat":41.63583,"lon":32.3375,"name":"Bartın","nameEn":"Bartın","timezone":"Europe/Istanbul","country":"TR","admin1":"87","population":81692,"aliases":["Bartin"]},{"key":"turkey_elbistan","lat":38.20591,"lon":37.1983,"name":"Elbistan","nameEn":"Elbistan","timezone":"Europe/Istanbul","country":"TR","admin1":"46","population":80456},{"key":"turkey_hakkari","lat":37.57444,"lon":43.74083,"name":"Hakkâri","nameEn":"Hakkâri","timezone":"Europe/Istanbul","country":"TR","admin1":"70","population":77699,"aliases":["Hakkari"]},{"key":"turkey_uenye","lat":41.14049,"lon":37.28851,"name":"Ünye","nameEn":"Ünye","timezone":"Europe/Istanbul","country":"TR","admin1":"52","population":77585,"aliases":["UEnye"]},{"key":"turkey_midyat","lat":37.41908,"lon":41.33909,"name":"Midyat","nameEn":"Midyat","timezone":"Europe/Istanbul","country":"TR","admin1":"72","population":76268},{"key":"turkey_nevsehir","lat":38.625,"lon":34.71222,"name":"Nevşehir","nameEn":"Nevşehir","timezone":"Europe/Istanbul","country":"TR","admin1":"50","population":75527,"aliases":["Nevsehir"]},{"key":"turkey_bismil","lat":37.84514,"lon":40.65931,"name":"Bismil","nameEn":"Bismil","timezone":"Europe/Istanbul","country":"TR","admin1":"21","population":74493},{"key":"turkey_bilecik","lat":40.14192,"lon":29.97932,"name":"Bilecik","nameEn":"Bilecik","timezone":"Europe/Istanbul","country":"TR","admin1":"11","population":74457},{"key":"turkey_belek","lat":36.8631,"lon":31.06541,"name":"Belek","nameEn":"Belek","timezone":"Europe/Istanbul","country":"TR","admin1":"07","population":73260},{"key":"turkey_tatvan","lat":38.49221,"lon":42.28269,"name":"Tatvan","nameEn":"Tatvan","timezone":"Europe/Istanbul","country":"TR","admin1":"13","population":73222},{"key":"turkey_yueksekova","lat":37.57362,"lon":44.28716,"name":"Yüksekova","nameEn":"Yüksekova","timezone":"Europe/Istanbul","country":"TR","admin1":"70","population":71729,"aliases":["Yueksekova"]},{"key":"turkey_yalova","lat":40.65501,"lon":29.27693,"name":"Yalova","nameEn":"Yalova","timezone":"Europe/Istanbul","country":"TR","admin1":"92","population":71289},{"key":"turkey_gemlik","lat":40.43094,"lon":29.15969,"name":"Gemlik","nameEn":"Gemlik","timezone":"Europe/Istanbul","country":"TR","admin1":"16","population":71063},{"key":"turkey_kadirli","lat":37.37389,"lon":36.09611,"name":"Kadirli","nameEn":"Kadirli","timezone":"Europe/Istanbul","country":"TR","admin1":"91","population":70248},{"key":"turkey_dogubayazit","lat":39.54694,"lon":44.08417,"name":"Doğubayazıt","nameEn":"Doğubayazıt","timezone":"Europe/Istanbul","country":"TR","admin1":"04","population":70171,"aliases":["Dogubayazit"]},{"key":"turkey_ayvalik","lat":39.31927,"lon":26.69341,"name":"Ayvalık","nameEn":"Ayvalık","timezone":"Europe/Istanbul","country":"TR","admin1":"10","population":70002,"aliases":["Ayvalik"]},{"key":"turkey_soeke","lat":37.7482,"lon":27.40614,"name":"Söke","nameEn":"Söke","timezone":"Europe/Istanbul","country":"TR","admin1":"09","population":68230,"aliases":["Soeke"]},{"key":"turkey_ardesen","lat":41.19064,"lon":40.97935,"name":"Ardeşen","nameEn":"Ardeşen","timezone":"Europe/Istanbul","country":"TR","admin1":"53","population":67965,"aliases":["Ardesen"]},{"key":"turkey_sirnak","lat":37.51393,"lon":42.45432,"name":"Şırnak","nameEn":"Şırnak","timezone":"Europe/Istanbul","country":"TR","admin1":"80","population":67662,"aliases":["Sirnak"]},{"key":"turkey_oedemis","lat":38.2278,"lon":27.96955,"name":"Ödemiş","nameEn":"Ödemiş","timezone":"Europe/Istanbul","country":"TR","admin1":"35","population":67153,"aliases":["OEdemis"]},{"key":"turkey_silvan","lat":38.13708,"lon":41.00817,"name":"Silvan","nameEn":"Silvan","timezone":"Europe/Istanbul","country":"TR","admin1":"21","population":65956},{"key":"turkey_ahlat","lat":38.7489,"lon":42.48007,"name":"Ahlat","nameEn":"Ahlat","timezone":"Europe/Istanbul","country":"TR","admin1":"13","population":64695},{"key":"turkey_aksehir","lat":38.3575,"lon":31.41639,"name":"Akşehir","nameEn":"Akşehir","timezone":"Europe/Istanbul","country":"TR","admin1":"71","population":64446,"aliases":["Aksehir"]},{"key":"turkey_kusadasi","lat":37.86014,"lon":27.25713,"name":"Kuşadası","nameEn":"Kuşadası","timezone":"Europe/Istanbul","country":"TR","admin1":"09","population":63177,"aliases":["Kusadasi"]},{"key":"turkey_urla","lat":38.32292,"lon":26.76403,"name":"Urla","nameEn":"Urla","timezone":"Europe/Istanbul","country":"TR","admin1":"35","population":62989},{"key":"turkey_sorgun","lat":39.81012,"lon":35.18596,"name":"Sorgun","nameEn":"Sorgun","timezone":"Europe/Istanbul","country":"TR","admin1":"66","population":62862},{"key":"turkey_cubuk","lat":40.23861,"lon":33.03222,"name":"Çubuk","nameEn":"Çubuk","timezone":"Europe/Istanbul","country":"TR","admin1":"68","population":62602,"aliases":["Cubuk"]},{"key":"turkey_biga","lat":40.22806,"lon":27.24222,"name":"Biga","nameEn":"Biga","timezone":"Europe/Istanbul","country":"TR","admin1":"17","population":61066},{"key":"turkey_kirikhan","lat":36.49939,"lon":36.35755,"name":"Kırıkhan","nameEn":"Kırıkhan","timezone":"Europe/Istanbul","country":"TR","admin1":"31","population":60916,"aliases":["Kirikhan"]},{"key":"turkey_fethiye","lat":36.64038,"lon":29.12758,"name":"Fethiye","nameEn":"Fethiye","timezone":"Europe/Istanbul","country":"TR","admin1":"48","population":60437},{"key":"turkey_kirklareli","lat":41.73508,"lon":27.22521,"name":"Kırklareli","nameEn":"Kırklareli","timezone":"Europe/Istanbul","country":"TR","admin1":"39","population":58223,"aliases":["Kirklareli"]},{"key":"turkey_bergama","lat":39.12074,"lon":27.18052,"name":"Bergama","nameEn":"Bergama","timezone":"Europe/Istanbul","country":"TR","admin1":"35","population":57200},{"key":"turkey_anamur","lat":36.07508,"lon":32.83691,"name":"Anamur","nameEn":"Anamur","timezone":"Europe/Istanbul","country":"TR","admin1":"32","population":57128},{"key":"turkey_reyhanli","lat":36.26791,"lon":36.56747,"name":"Reyhanlı","nameEn":"Reyhanlı","timezone":"Europe/Istanbul","country":"TR","admin1":"31","population":56995,"aliases":["Reyhanli"]},{"key":"turkey_doertyol","lat":36.83917,"lon":36.23025,"name":"Dörtyol","nameEn":"Dörtyol","timezone":"Europe/Istanbul","country":"TR","admin1":"31","population":56513,"aliases":["Doertyol"]},{"key":"turkey_goelcuek","lat":40.71501,"lon":29.81824,"name":"Gölcük","nameEn":"Gölcük","timezone":"Europe/Istanbul","country":"TR","admin1":"41","population":56189,"aliases":["Goelcuek"]},{"key":"turkey_bolvadin","lat":38.71111,"lon":31.04861,"name":"Bolvadin","nameEn":"Bolvadin","timezone":"Europe/Istanbul","country":"TR","admin1":"03","population":55870},{"key":"turkey_zile","lat":40.30306,"lon":35.88639,"name":"Zile","nameEn":"Zile","timezone":"Europe/Istanbul","country":"TR","admin1":"60","population":55680},{"key":"turkey_eminoenue","lat":41.01754,"lon":28.97101,"name":"Eminönü","nameEn":"Eminönü","timezone":"Europe/Istanbul","country":"TR","admin1":"34","population":55548,"aliases":["Eminoenue"]},{"key":"turkey_bozueyuek","lat":39.90778,"lon":30.03667,"name":"Bozüyük","nameEn":"Bozüyük","timezone":"Europe/Istanbul","country":"TR","admin1":"11","population":55365,"aliases":["Bozueyuek"]},{"key":"turkey_menemen","lat":38.60754,"lon":27.06938,"name":"Menemen","nameEn":"Menemen","timezone":"Europe/Istanbul","country":"TR","admin1":"35","population":53489},{"key":"turkey_silivri","lat":41.07393,"lon":28.24644,"name":"Silivri","nameEn":"Silivri","timezone":"Europe/Istanbul","country":"TR","admin1":"34","population":53167},{"key":"turkey_bitlis","lat":38.40115,"lon":42.10784,"name":"Bitlis","nameEn":"Bitlis","timezone":"Europe/Istanbul","country":"TR","admin1":"13","population":53023},{"key":"turkey_adilcevaz","lat":38.79911,"lon":42.73159,"name":"Adilcevaz","nameEn":"Adilcevaz","timezone":"Europe/Istanbul","country":"TR","admin1":"13","population":52781},{"key":"turkey_ergani","lat":38.26899,"lon":39.75446,"name":"Ergani","nameEn":"Ergani","timezone":"Europe/Istanbul","country":"TR","admin1":"21","population":52684},{"key":"turkey_erbaa","lat":40.66889,"lon":36.5675,"name":"Erbaa","nameEn":"Erbaa","timezone":"Europe/Istanbul","country":"TR","admin1":"60","population":52185},{"key":"turkey_tavsanli","lat":39.54237,"lon":29.49866,"name":"Tavşanlı","nameEn":"Tavşanlı","timezone":"Europe/Istanbul","country":"TR","admin1":"43","population":52182,"aliases":["Tavsanli"]},{"key":"turkey_orhangazi","lat":40.48917,"lon":29.30889,"name":"Orhangazi","nameEn":"Orhangazi","timezone":"Europe/Istanbul","country":"TR","admin1":"16","population":51792},{"key":"turkey_seydisehir","lat":37.41926,"lon":31.84527,"name":"Seydişehir","nameEn":"Seydişehir","timezone":"Europe/Istanbul","country":"TR","admin1":"71","population":51089,"aliases":["Seydisehir"]},{"key":"turkey_merzifon","lat":40.87333,"lon":35.46306,"name":"Merzifon","nameEn":"Merzifon","timezone":"Europe/Istanbul","country":"TR","admin1":"05","population":50658},{"key":"turkey_kavakli","lat":41.09258,"lon":28.33172,"name":"Kavaklı","nameEn":"Kavaklı","timezone":"Europe/Istanbul","country":"TR","admin1":"34","population":50502,"aliases":["Kavakli"]},{"key":"turkey_carsamba","lat":41.19889,"lon":36.72194,"name":"Çarşamba","nameEn":"Çarşamba","timezone":"Europe/Istanbul","country":"TR","admin1":"55","population":50459,"aliases":["Carsamba"]},{"key":"turkey_torbali","lat":38.182,"lon":27.335,"name":"Torbalı","nameEn":"Torbalı","timezone":"Europe/Istanbul","country":"TR","admin1":"35","population":50303,"aliases":["Torbali"]},{"key":"turkey_merter_keresteciler","lat":41.01295,"lon":28.88593,"name":"Merter Keresteciler","nameEn":"Merter Keresteciler","timezone":"Europe/Istanbul","country":"TR","admin1":"34","population":50000},{"key":"turkey_guengoeren_merter","lat":41.00711,"lon":28.88795,"name":"Güngören Merter","nameEn":"Güngören Merter","timezone":"Europe/Istanbul","country":"TR","admin1":"34","population":50000,"aliases":["Guengoeren Merter"]},{"key":"turkey_niksar","lat":40.59167,"lon":36.95167,"name":"Niksar","nameEn":"Niksar","timezone":"Europe/Istanbul","country":"TR","admin1":"60","population":49865},{"key":"turkey_keskin","lat":39.67306,"lon":33.61361,"name":"Keskin","nameEn":"Keskin","timezone":"Europe/Istanbul","country":"TR","admin1":"79","population":49679},{"key":"turkey_karapinar","lat":37.71596,"lon":33.55064,"name":"Karapınar","nameEn":"Karapınar","timezone":"Europe/Istanbul","country":"TR","admin1":"71","population":49509,"aliases":["Karapinar"]},{"key":"turkey_mut","lat":36.64389,"lon":33.43885,"name":"Mut","nameEn":"Mut","timezone":"Europe/Istanbul","country":"TR","admin1":"32","population":49397},{"key":"turkey_alasehir","lat":38.35083,"lon":28.51718,"name":"Alaşehir","nameEn":"Alaşehir","timezone":"Europe/Istanbul","country":"TR","admin1":"45","population":48147,"aliases":["Alasehir"]},{"key":"turkey_bayburt","lat":40.25631,"lon":40.22289,"name":"Bayburt","nameEn":"Bayburt","timezone":"Europe/Istanbul","country":"TR","admin1":"77","population":48036},{"key":"turkey_suluova","lat":40.83129,"lon":35.64788,"name":"Suluova","nameEn":"Suluova","timezone":"Europe/Istanbul","country":"TR","admin1":"05","population":47572},{"key":"turkey_sebin_karahisar","lat":40.28833,"lon":38.42361,"name":"Şebin Karahisar","nameEn":"Şebin Karahisar","timezone":"Europe/Istanbul","country":"TR","admin1":"28","population":47360,"aliases":["Sebin Karahisar"]},{"key":"turkey_tire","lat":38.08877,"lon":27.73508,"name":"Tire","nameEn":"Tire","timezone":"Europe/Istanbul","country":"TR","admin1":"35","population":47220},{"key":"turkey_kulu","lat":39.09513,"lon":33.07989,"name":"Kulu","nameEn":"Kulu","timezone":"Europe/Istanbul","country":"TR","admin1":"71","population":47037},{"key":"turkey_erdemli","lat":36.60498,"lon":34.30836,"name":"Erdemli","nameEn":"Erdemli","timezone":"Europe/Istanbul","country":"TR","admin1":"32","population":46570},{"key":"turkey_cumra","lat":37.5732,"lon":32.77446,"name":"Çumra","nameEn":"Çumra","timezone":"Europe/Istanbul","country":"TR","admin1":"71","population":45657,"aliases":["Cumra"]},{"key":"turkey_kirecocagi","lat":37.05,"lon":35.23333,"name":"Kireçocağı","nameEn":"Kireçocağı","timezone":"Europe/Istanbul","country":"TR","admin1":"81","population":45476,"aliases":["Kirecocagi"]},{"key":"turkey_akcaabat","lat":41.02121,"lon":39.57146,"name":"Akçaabat","nameEn":"Akçaabat","timezone":"Europe/Istanbul","country":"TR","admin1":"61","population":45105,"aliases":["Akcaabat"]},{"key":"turkey_aliaga","lat":38.79975,"lon":26.97203,"name":"Aliağa","nameEn":"Aliağa","timezone":"Europe/Istanbul","country":"TR","admin1":"35","population":44883,"aliases":["Aliaga"]},{"key":"turkey_kesan","lat":40.85525,"lon":26.63266,"name":"Keşan","nameEn":"Keşan","timezone":"Europe/Istanbul","country":"TR","admin1":"22","population":44644,"aliases":["Kesan"]},{"key":"turkey_beysehir","lat":37.67735,"lon":31.72458,"name":"Beyşehir","nameEn":"Beyşehir","timezone":"Europe/Istanbul","country":"TR","admin1":"71","population":44460,"aliases":["Beysehir"]},{"key":"turkey_birecik","lat":37.02577,"lon":37.97841,"name":"Birecik","nameEn":"Birecik","timezone":"Europe/Istanbul","country":"TR","admin1":"63","population":44284},{"key":"turkey_karacabey","lat":40.21323,"lon":28.3612,"name":"Karacabey","nameEn":"Karacabey","timezone":"Europe/Istanbul","country":"TR","admin1":"16","population":44256},{"key":"turkey_sereflikochisar","lat":38.93925,"lon":33.5386,"name":"Şereflikoçhisar","nameEn":"Şereflikoçhisar","timezone":"Europe/Istanbul","country":"TR","admin1":"68","population":44101,"aliases":["Sereflikochisar"]},{"key":"turkey_bulancak","lat":40.93805,"lon":38.23148,"name":"Bulancak","nameEn":"Bulancak","timezone":"Europe/Istanbul","country":"TR","admin1":"28","population":43635},{"key":"turkey_milas","lat":37.31639,"lon":27.78389,"name":"Milas","nameEn":"Milas","timezone":"Europe/Istanbul","country":"TR","admin1":"48","population":43193},{"key":"turkey_sandikli","lat":38.46472,"lon":30.26946,"name":"Sandıklı","nameEn":"Sandıklı","timezone":"Europe/Istanbul","country":"TR","admin1":"03","population":42981,"aliases":["Sandikli"]},{"key":"turkey_besni","lat":37.69278,"lon":37.86111,"name":"Besni","nameEn":"Besni","timezone":"Europe/Istanbul","country":"TR","admin1":"02","population":41892},{"key":"turkey_edremit","lat":39.59611,"lon":27.02444,"name":"Edremit","nameEn":"Edremit","timezone":"Europe/Istanbul","country":"TR","admin1":"10","population":40777},{"key":"turkey_goenen","lat":40.1049,"lon":27.65399,"name":"Gönen","nameEn":"Gönen","timezone":"Europe/Istanbul","country":"TR","admin1":"10","population":40763,"aliases":["Goenen"]},{"key":"turkey_catalca","lat":41.14073,"lon":28.45967,"name":"Çatalca","nameEn":"Çatalca","timezone":"Europe/Istanbul","country":"TR","admin1":"34","population":39678,"aliases":["Catalca"]},{"key":"turkey_afsin","lat":38.24769,"lon":36.91399,"name":"Afşin","nameEn":"Afşin","timezone":"Europe/Istanbul","country":"TR","admin1":"46","population":39613,"aliases":["Afsin"]},{"key":"turkey_cimin","lat":39.70947,"lon":39.70015,"name":"Cimin","nameEn":"Cimin","timezone":"Europe/Istanbul","country":"TR","admin1":"24","population":39591},{"key":"turkey_karasu_mahallesi","lat":41.07096,"lon":30.78543,"name":"Karasu Mahallesi","nameEn":"Karasu Mahallesi","timezone":"Europe/Istanbul","country":"TR","admin1":"54","population":39508},{"key":"turkey_bodrum","lat":37.03833,"lon":27.42917,"name":"Bodrum","nameEn":"Bodrum","timezone":"Europe/Istanbul","country":"TR","admin1":"48","population":39317},{"key":"turkey_guemueshane","lat":40.46001,"lon":39.47176,"name":"Gümüşhane","nameEn":"Gümüşhane","timezone":"Europe/Istanbul","country":"TR","admin1":"69","population":39214,"aliases":["Guemueshane"]},{"key":"turkey_yalvac","lat":38.29556,"lon":31.17778,"name":"Yalvaç","nameEn":"Yalvaç","timezone":"Europe/Istanbul","country":"TR","admin1":"33","population":39145,"aliases":["Yalvac"]},{"key":"turkey_beypazari","lat":40.1675,"lon":31.92111,"name":"Beypazarı","nameEn":"Beypazarı","timezone":"Europe/Istanbul","country":"TR","admin1":"68","population":38769,"aliases":["Beypazari"]},{"key":"turkey_burhaniye","lat":39.50041,"lon":26.97269,"name":"Burhaniye","nameEn":"Burhaniye","timezone":"Europe/Istanbul","country":"TR","admin1":"10","population":38083},{"key":"turkey_vakfikebir","lat":41.04583,"lon":39.27639,"name":"Vakfıkebir","nameEn":"Vakfıkebir","timezone":"Europe/Istanbul","country":"TR","admin1":"61","population":37728,"aliases":["Vakfikebir"]},{"key":"turkey_sungurlu","lat":40.1675,"lon":34.37389,"name":"Sungurlu","nameEn":"Sungurlu","timezone":"Europe/Istanbul","country":"TR","admin1":"19","population":37526},{"key":"turkey_besikduezue","lat":41.05202,"lon":39.23294,"name":"Beşikdüzü","nameEn":"Beşikdüzü","timezone":"Europe/Istanbul","country":"TR","admin1":"61","population":36987,"aliases":["Besikduezue"]},{"key":"turkey_serik","lat":36.91748,"lon":31.10463,"name":"Serik","nameEn":"Serik","timezone":"Europe/Istanbul","country":"TR","admin1":"07","population":36925},{"key":"turkey_talas","lat":38.6908,"lon":35.5538,"name":"Talas","nameEn":"Talas","timezone":"Europe/Istanbul","country":"TR","admin1":"38","population":36890},{"key":"turkey_uzunkoeprue","lat":41.26914,"lon":26.68598,"name":"Uzunköprü","nameEn":"Uzunköprü","timezone":"Europe/Istanbul","country":"TR","admin1":"22","population":36470,"aliases":["Uzunkoeprue"]},{"key":"turkey_osmancik","lat":40.97818,"lon":34.8047,"name":"Osmancık","nameEn":"Osmancık","timezone":"Europe/Istanbul","country":"TR","admin1":"19","population":36443,"aliases":["Osmancik"]},{"key":"turkey_kestel","lat":40.19828,"lon":29.21237,"name":"Kestel","nameEn":"Kestel","timezone":"Europe/Istanbul","country":"TR","admin1":"16","population":36185},{"key":"turkey_goeruekle","lat":40.23114,"lon":28.84017,"name":"Görükle","nameEn":"Görükle","timezone":"Europe/Istanbul","country":"TR","admin1":"16","population":35882,"aliases":["Goeruekle"]},{"key":"turkey_develi","lat":38.39056,"lon":35.49222,"name":"Develi","nameEn":"Develi","timezone":"Europe/Istanbul","country":"TR","admin1":"38","population":35868},{"key":"turkey_hinis","lat":39.35766,"lon":41.69253,"name":"Hınıs","nameEn":"Hınıs","timezone":"Europe/Istanbul","country":"TR","admin1":"25","population":35472,"aliases":["Hinis"]},{"key":"turkey_dinar","lat":38.065,"lon":30.16557,"name":"Dinar","nameEn":"Dinar","timezone":"Europe/Istanbul","country":"TR","admin1":"03","population":35359},{"key":"turkey_yerkoey","lat":39.63806,"lon":34.46722,"name":"Yerköy","nameEn":"Yerköy","timezone":"Europe/Istanbul","country":"TR","admin1":"66","population":35294,"aliases":["Yerkoey"]},{"key":"turkey_hendek","lat":40.79944,"lon":30.74806,"name":"Hendek","nameEn":"Hendek","timezone":"Europe/Istanbul","country":"TR","admin1":"54","population":35257},{"key":"turkey_safranbolu","lat":41.25083,"lon":32.69417,"name":"Safranbolu","nameEn":"Safranbolu","timezone":"Europe/Istanbul","country":"TR","admin1":"89","population":35242},{"key":"turkey_tunceli","lat":39.09921,"lon":39.54351,"name":"Tunceli","nameEn":"Tunceli","timezone":"Europe/Istanbul","country":"TR","admin1":"62","population":35161},{"key":"turkey_akcakoca","lat":41.08935,"lon":31.12362,"name":"Akçakoca","nameEn":"Akçakoca","timezone":"Europe/Istanbul","country":"TR","admin1":"93","population":35151,"aliases":["Akcakoca"]},{"key":"turkey_simav","lat":39.0882,"lon":28.97767,"name":"Simav","nameEn":"Simav","timezone":"Europe/Istanbul","country":"TR","admin1":"43","population":34909},{"key":"turkey_sinop","lat":42.02683,"lon":35.16253,"name":"Sinop","nameEn":"Sinop","timezone":"Europe/Istanbul","country":"TR","admin1":"57","population":34834},{"key":"turkey_goeksun","lat":38.02096,"lon":36.4973,"name":"Göksun","nameEn":"Göksun","timezone":"Europe/Istanbul","country":"TR","admin1":"46","population":34243,"aliases":["Goeksun"]},{"key":"turkey_cay","lat":38.59167,"lon":31.02861,"name":"Çay","nameEn":"Çay","timezone":"Europe/Istanbul","country":"TR","admin1":"03","population":34215,"aliases":["Cay"]},{"key":"turkey_marmaris","lat":36.855,"lon":28.27417,"name":"Marmaris","nameEn":"Marmaris","timezone":"Europe/Istanbul","country":"TR","admin1":"48","population":33731},{"key":"turkey_cesme","lat":38.32614,"lon":26.30574,"name":"Çeşme","nameEn":"Çeşme","timezone":"Europe/Istanbul","country":"TR","admin1":"35","population":33259,"aliases":["Cesme"]},{"key":"turkey_sarkikaraagac","lat":38.07944,"lon":31.36639,"name":"Şarkîkaraağaç","nameEn":"Şarkîkaraağaç","timezone":"Europe/Istanbul","country":"TR","admin1":"33","population":32771,"aliases":["Sarkikaraagac"]},{"key":"turkey_bor","lat":37.89056,"lon":34.55889,"name":"Bor","nameEn":"Bor","timezone":"Europe/Istanbul","country":"TR","admin1":"73","population":32435},{"key":"turkey_kumru","lat":40.87444,"lon":37.26389,"name":"Kumru","nameEn":"Kumru","timezone":"Europe/Istanbul","country":"TR","admin1":"52","population":32174},{"key":"turkey_etlik","lat":39.98205,"lon":32.82459,"name":"Etlik","nameEn":"Etlik","timezone":"Europe/Istanbul","country":"TR","admin1":"68","population":32156},{"key":"turkey_kurtalan","lat":37.92533,"lon":41.68493,"name":"Kurtalan","nameEn":"Kurtalan","timezone":"Europe/Istanbul","country":"TR","admin1":"74","population":32114},{"key":"turkey_akcakale","lat":36.71111,"lon":38.9475,"name":"Akçakale","nameEn":"Akçakale","timezone":"Europe/Istanbul","country":"TR","admin1":"63","population":32114,"aliases":["Akcakale"]},{"key":"turkey_yesilli","lat":37.33813,"lon":40.81739,"name":"Yeşilli","nameEn":"Yeşilli","timezone":"Europe/Istanbul","country":"TR","admin1":"72","population":32072,"aliases":["Yesilli"]},{"key":"turkey_of","lat":40.94055,"lon":40.25918,"name":"Of","nameEn":"Of","timezone":"Europe/Istanbul","country":"TR","admin1":"61","population":31951},{"key":"turkey_imamoglu","lat":37.26506,"lon":35.65717,"name":"İmamoğlu","nameEn":"İmamoğlu","timezone":"Europe/Istanbul","country":"TR","admin1":"81","population":31916,"aliases":["Imamoglu"]},{"key":"turkey_ceylanpinar","lat":36.84722,"lon":40.05,"name":"Ceylanpınar","nameEn":"Ceylanpınar","timezone":"Europe/Istanbul","country":"TR","admin1":"63","population":31488,"aliases":["Ceylanpinar"]},{"key":"turkey_bulanik","lat":39.08656,"lon":42.27158,"name":"Bulanık","nameEn":"Bulanık","timezone":"Europe/Istanbul","country":"TR","admin1":"49","population":31430,"aliases":["Bulanik"]},{"key":"turkey_ortakoey","lat":38.73728,"lon":34.03866,"name":"Ortaköy","nameEn":"Ortaköy","timezone":"Europe/Istanbul","country":"TR","admin1":"75","population":31144,"aliases":["Ortakoey"]},{"key":"turkey_kula","lat":38.54726,"lon":28.64976,"name":"Kula","nameEn":"Kula","timezone":"Europe/Istanbul","country":"TR","admin1":"45","population":31100},{"key":"turkey_mimarsinan","lat":41.01488,"lon":28.56085,"name":"Mimarsinan","nameEn":"Mimarsinan","timezone":"Europe/Istanbul","country":"TR","admin1":"34","population":31002},{"key":"turkey_karasu","lat":41.10442,"lon":30.69664,"name":"Karasu","nameEn":"Karasu","timezone":"Europe/Istanbul","country":"TR","admin1":"54","population":30746},{"key":"turkey_karamuersel","lat":40.69129,"lon":29.61649,"name":"Karamürsel","nameEn":"Karamürsel","timezone":"Europe/Istanbul","country":"TR","admin1":"41","population":30525,"aliases":["Karamuersel"]},{"key":"turkey_incirli","lat":39.98431,"lon":32.84317,"name":"İncirli","nameEn":"İncirli","timezone":"Europe/Istanbul","country":"TR","admin1":"68","population":30440,"aliases":["Incirli"]},{"key":"turkey_kemalpasa","lat":38.42621,"lon":27.41731,"name":"Kemalpaşa","nameEn":"Kemalpaşa","timezone":"Europe/Istanbul","country":"TR","admin1":"35","population":30411,"aliases":["Kemalpasa"]},{"key":"turkey_goerele","lat":41.03083,"lon":39.00306,"name":"Görele","nameEn":"Görele","timezone":"Europe/Istanbul","country":"TR","admin1":"28","population":30381,"aliases":["Goerele"]},{"key":"turkey_beykonak","lat":36.32573,"lon":30.30302,"name":"Beykonak","nameEn":"Beykonak","timezone":"Europe/Istanbul","country":"TR","admin1":"07","population":30339},{"key":"turkey_arakli","lat":40.93854,"lon":40.05842,"name":"Araklı","nameEn":"Araklı","timezone":"Europe/Istanbul","country":"TR","admin1":"61","population":29917,"aliases":["Arakli"]},{"key":"turkey_bostanli","lat":38.45921,"lon":27.09732,"name":"Bostanlı","nameEn":"Bostanlı","timezone":"Europe/Istanbul","country":"TR","admin1":"35","population":29842,"aliases":["Bostanli"]},{"key":"turkey_karakocan","lat":38.95178,"lon":40.02706,"name":"Karakoçan","nameEn":"Karakoçan","timezone":"Europe/Istanbul","country":"TR","admin1":"23","population":29735,"aliases":["Karakocan"]},{"key":"turkey_kozluk","lat":38.19118,"lon":41.47775,"name":"Kozluk","nameEn":"Kozluk","timezone":"Europe/Istanbul","country":"TR","admin1":"76","population":29502},{"key":"turkey_guerpinar","lat":40.99256,"lon":28.61428,"name":"Gürpınar","nameEn":"Gürpınar","timezone":"Europe/Istanbul","country":"TR","admin1":"34","population":29411,"aliases":["Guerpinar"]},{"key":"turkey_semikler","lat":38.47497,"lon":27.09591,"name":"Şemikler","nameEn":"Şemikler","timezone":"Europe/Istanbul","country":"TR","admin1":"35","population":29321,"aliases":["Semikler"]},{"key":"turkey_bucak","lat":37.45917,"lon":30.595,"name":"Bucak","nameEn":"Bucak","timezone":"Europe/Istanbul","country":"TR","admin1":"15","population":29234},{"key":"turkey_selcuk","lat":37.95137,"lon":27.36849,"name":"Selçuk","nameEn":"Selçuk","timezone":"Europe/Istanbul","country":"TR","admin1":"35","population":29101,"aliases":["Selcuk"]},{"key":"turkey_oba","lat":36.55013,"lon":32.0596,"name":"Oba","nameEn":"Oba","timezone":"Europe/Istanbul","country":"TR","admin1":"07","population":28864},{"key":"turkey_atasehir_2","lat":38.48855,"lon":27.06132,"name":"Ataşehir","nameEn":"Ataşehir","timezone":"Europe/Istanbul","country":"TR","admin1":"35","population":28864,"aliases":["Atasehir"]},{"key":"turkey_yakuplu","lat":40.98894,"lon":28.67582,"name":"Yakuplu","nameEn":"Yakuplu","timezone":"Europe/Istanbul","country":"TR","admin1":"34","population":28811},{"key":"turkey_yenisehir","lat":40.26444,"lon":29.65306,"name":"Yenişehir","nameEn":"Yenişehir","timezone":"Europe/Istanbul","country":"TR","admin1":"16","population":28656,"aliases":["Yenisehir"]},{"key":"turkey_kaman","lat":39.3575,"lon":33.72389,"name":"Kaman","nameEn":"Kaman","timezone":"Europe/Istanbul","country":"TR","admin1":"40","population":28605},{"key":"turkey_foca","lat":38.6703,"lon":26.75656,"name":"Foça","nameEn":"Foça","timezone":"Europe/Istanbul","country":"TR","admin1":"35","population":28594,"aliases":["Foca"]},{"key":"turkey_gerede","lat":40.80083,"lon":32.19694,"name":"Gerede","nameEn":"Gerede","timezone":"Europe/Istanbul","country":"TR","admin1":"14","population":28582},{"key":"turkey_bozyazi","lat":36.1082,"lon":32.96113,"name":"Bozyazı","nameEn":"Bozyazı","timezone":"Europe/Istanbul","country":"TR","admin1":"32","population":28456,"aliases":["Bozyazi"]},{"key":"turkey_terme","lat":41.20917,"lon":36.97389,"name":"Terme","nameEn":"Terme","timezone":"Europe/Istanbul","country":"TR","admin1":"55","population":28397},{"key":"turkey_goelbasi_2","lat":37.78361,"lon":37.63667,"name":"Gölbaşı","nameEn":"Gölbaşı","timezone":"Europe/Istanbul","country":"TR","admin1":"02","population":28078,"aliases":["Goelbasi"]},{"key":"turkey_boyabat","lat":41.46889,"lon":34.76667,"name":"Boyabat","nameEn":"Boyabat","timezone":"Europe/Istanbul","country":"TR","admin1":"57","population":27717},{"key":"turkey_malkara","lat":40.89105,"lon":26.90201,"name":"Malkara","nameEn":"Malkara","timezone":"Europe/Istanbul","country":"TR","admin1":"59","population":27427},{"key":"turkey_ilgin","lat":38.27917,"lon":31.91389,"name":"Ilgın","nameEn":"Ilgın","timezone":"Europe/Istanbul","country":"TR","admin1":"71","population":27423,"aliases":["Ilgin"]},{"key":"turkey_hidirbey","lat":36.20802,"lon":36.12787,"name":"Hıdırbey","nameEn":"Hıdırbey","timezone":"Europe/Istanbul","country":"TR","admin1":"31","population":27057,"aliases":["Hidirbey"]},{"key":"turkey_alaca","lat":40.16833,"lon":34.8425,"name":"Alaca","nameEn":"Alaca","timezone":"Europe/Istanbul","country":"TR","admin1":"19","population":27019},{"key":"turkey_babaeski","lat":41.42809,"lon":27.0966,"name":"Babaeski","nameEn":"Babaeski","timezone":"Europe/Istanbul","country":"TR","admin1":"39","population":26724},{"key":"turkey_akyurt","lat":40.13512,"lon":33.08614,"name":"Akyurt","nameEn":"Akyurt","timezone":"Europe/Istanbul","country":"TR","admin1":"68","population":26572},{"key":"turkey_kulp","lat":38.49754,"lon":41.00668,"name":"Kulp","nameEn":"Kulp","timezone":"Europe/Istanbul","country":"TR","admin1":"21","population":26569},{"key":"turkey_erzin","lat":36.95348,"lon":36.19839,"name":"Erzin","nameEn":"Erzin","timezone":"Europe/Istanbul","country":"TR","admin1":"31","population":26316},{"key":"turkey_can","lat":40.03328,"lon":27.05236,"name":"Çan","nameEn":"Çan","timezone":"Europe/Istanbul","country":"TR","admin1":"17","population":26201,"aliases":["Can"]},{"key":"turkey_altinsehir","lat":37.74121,"lon":38.22897,"name":"Altınşehir","nameEn":"Altınşehir","timezone":"Europe/Istanbul","country":"TR","admin1":"02","population":26153,"aliases":["Altinsehir"]},{"key":"turkey_malazgirt","lat":39.1465,"lon":42.53536,"name":"Malazgirt","nameEn":"Malazgirt","timezone":"Europe/Istanbul","country":"TR","admin1":"49","population":26108},{"key":"turkey_didim","lat":37.38496,"lon":27.25643,"name":"Didim","nameEn":"Didim","timezone":"Europe/Istanbul","country":"TR","admin1":"09","population":26000},{"key":"turkey_artvin","lat":41.18161,"lon":41.82172,"name":"Artvin","nameEn":"Artvin","timezone":"Europe/Istanbul","country":"TR","admin1":"08","population":25841},{"key":"turkey_gueroymak","lat":38.5758,"lon":42.01558,"name":"Güroymak","nameEn":"Güroymak","timezone":"Europe/Istanbul","country":"TR","admin1":"13","population":25826,"aliases":["Gueroymak"]},{"key":"turkey_susehri","lat":40.16005,"lon":38.08413,"name":"Suşehri","nameEn":"Suşehri","timezone":"Europe/Istanbul","country":"TR","admin1":"58","population":25820,"aliases":["Susehri"]},{"key":"turkey_elmadag","lat":39.92083,"lon":33.23083,"name":"Elmadağ","nameEn":"Elmadağ","timezone":"Europe/Istanbul","country":"TR","admin1":"68","population":25394,"aliases":["Elmadag"]},{"key":"turkey_sapanca","lat":40.69141,"lon":30.26738,"name":"Sapanca","nameEn":"Sapanca","timezone":"Europe/Istanbul","country":"TR","admin1":"54","population":25224},{"key":"turkey_gelibolu","lat":40.40836,"lon":26.67174,"name":"Gelibolu","nameEn":"Gelibolu","timezone":"Europe/Istanbul","country":"TR","admin1":"17","population":25178},{"key":"turkey_kagizman","lat":40.15669,"lon":43.13424,"name":"Kağızman","nameEn":"Kağızman","timezone":"Europe/Istanbul","country":"TR","admin1":"84","population":25157,"aliases":["Kagizman"]},{"key":"turkey_vezirkoeprue","lat":41.14361,"lon":35.45472,"name":"Vezirköprü","nameEn":"Vezirköprü","timezone":"Europe/Istanbul","country":"TR","admin1":"55","population":25155,"aliases":["Vezirkoeprue"]},{"key":"turkey_akyazi","lat":40.685,"lon":30.62222,"name":"Akyazı","nameEn":"Akyazı","timezone":"Europe/Istanbul","country":"TR","admin1":"54","population":25068,"aliases":["Akyazi"]},{"key":"turkey_yahyali","lat":38.10228,"lon":35.35704,"name":"Yahyalı","nameEn":"Yahyalı","timezone":"Europe/Istanbul","country":"TR","admin1":"38","population":25019,"aliases":["Yahyali"]},{"key":"turkey_susurluk","lat":39.91361,"lon":28.15778,"name":"Susurluk","nameEn":"Susurluk","timezone":"Europe/Istanbul","country":"TR","admin1":"10","population":24816},{"key":"turkey_devrek","lat":41.21917,"lon":31.95583,"name":"Devrek","nameEn":"Devrek","timezone":"Europe/Istanbul","country":"TR","admin1":"85","population":24559},{"key":"turkey_cayeli","lat":41.08609,"lon":40.72213,"name":"Çayeli","nameEn":"Çayeli","timezone":"Europe/Istanbul","country":"TR","admin1":"53","population":24556,"aliases":["Cayeli"]},{"key":"turkey_pasinler","lat":39.97975,"lon":41.66997,"name":"Pasinler","nameEn":"Pasinler","timezone":"Europe/Istanbul","country":"TR","admin1":"25","population":24553},{"key":"turkey_guersu","lat":40.21876,"lon":29.19487,"name":"Gürsu","nameEn":"Gürsu","timezone":"Europe/Istanbul","country":"TR","admin1":"16","population":24510,"aliases":["Guersu"]},{"key":"turkey_mahmutlar","lat":36.49463,"lon":32.09085,"name":"Mahmutlar","nameEn":"Mahmutlar","timezone":"Europe/Istanbul","country":"TR","admin1":"07","population":24227},{"key":"turkey_tosya","lat":41.01545,"lon":34.04013,"name":"Tosya","nameEn":"Tosya","timezone":"Europe/Istanbul","country":"TR","admin1":"37","population":24013},{"key":"turkey_kazan","lat":40.23167,"lon":32.68389,"name":"Kazan","nameEn":"Kazan","timezone":"Europe/Istanbul","country":"TR","admin1":"68","population":23889},{"key":"turkey_kelkit","lat":40.12682,"lon":39.43424,"name":"Kelkit","nameEn":"Kelkit","timezone":"Europe/Istanbul","country":"TR","admin1":"69","population":23870},{"key":"turkey_pazarcik","lat":37.48685,"lon":37.29961,"name":"Pazarcık","nameEn":"Pazarcık","timezone":"Europe/Istanbul","country":"TR","admin1":"46","population":23850,"aliases":["Pazarcik"]},{"key":"turkey_emet","lat":39.343,"lon":29.25847,"name":"Emet","nameEn":"Emet","timezone":"Europe/Istanbul","country":"TR","admin1":"43","population":23812},{"key":"turkey_sarkisla","lat":39.35186,"lon":36.40976,"name":"Şarkışla","nameEn":"Şarkışla","timezone":"Europe/Istanbul","country":"TR","admin1":"58","population":23800,"aliases":["Sarkisla"]},{"key":"turkey_ferizli","lat":40.94082,"lon":30.48583,"name":"Ferizli","nameEn":"Ferizli","timezone":"Europe/Istanbul","country":"TR","admin1":"54","population":23740},{"key":"turkey_sarikamis","lat":40.32769,"lon":42.58705,"name":"Sarıkamış","nameEn":"Sarıkamış","timezone":"Europe/Istanbul","country":"TR","admin1":"84","population":23665,"aliases":["Sarikamis"]},{"key":"turkey_oltu","lat":40.53945,"lon":41.98722,"name":"Oltu","nameEn":"Oltu","timezone":"Europe/Istanbul","country":"TR","admin1":"25","population":23504},{"key":"turkey_mudanya","lat":40.37524,"lon":28.8838,"name":"Mudanya","nameEn":"Mudanya","timezone":"Europe/Istanbul","country":"TR","admin1":"16","population":23161},{"key":"turkey_yakinca","lat":38.30533,"lon":38.23828,"name":"Yakınca","nameEn":"Yakınca","timezone":"Europe/Istanbul","country":"TR","admin1":"44","population":23063,"aliases":["Yakinca"]},{"key":"turkey_akdagmadeni","lat":39.66028,"lon":35.88361,"name":"Akdağmadeni","nameEn":"Akdağmadeni","timezone":"Europe/Istanbul","country":"TR","admin1":"66","population":23048,"aliases":["Akdagmadeni"]},{"key":"turkey_kovancilar","lat":38.71882,"lon":39.86268,"name":"Kovancılar","nameEn":"Kovancılar","timezone":"Europe/Istanbul","country":"TR","admin1":"23","population":22976,"aliases":["Kovancilar"]},{"key":"turkey_idil","lat":37.33481,"lon":41.88944,"name":"İdil","nameEn":"İdil","timezone":"Europe/Istanbul","country":"TR","admin1":"80","population":22960,"aliases":["Idil"]},{"key":"turkey_ardahan","lat":41.10871,"lon":42.70222,"name":"Ardahan","nameEn":"Ardahan","timezone":"Europe/Istanbul","country":"TR","admin1":"86","population":22927},{"key":"turkey_erdek","lat":40.3996,"lon":27.79348,"name":"Erdek","nameEn":"Erdek","timezone":"Europe/Istanbul","country":"TR","admin1":"10","population":22678},{"key":"turkey_zekeriya","lat":41.19806,"lon":29.03028,"name":"Zekeriya","nameEn":"Zekeriya","timezone":"Europe/Istanbul","country":"TR","admin1":"34","population":22558},{"key":"turkey_genc","lat":38.74773,"lon":40.55343,"name":"Genç","nameEn":"Genç","timezone":"Europe/Istanbul","country":"TR","admin1":"12","population":22493,"aliases":["Genc"]},{"key":"turkey_iznik","lat":40.42861,"lon":29.72111,"name":"İznik","nameEn":"İznik","timezone":"Europe/Istanbul","country":"TR","admin1":"16","population":22230,"aliases":["Iznik"]},{"key":"turkey_gediz","lat":38.99389,"lon":29.39131,"name":"Gediz","nameEn":"Gediz","timezone":"Europe/Istanbul","country":"TR","admin1":"43","population":22058},{"key":"turkey_menderes","lat":38.24963,"lon":27.13429,"name":"Menderes","nameEn":"Menderes","timezone":"Europe/Istanbul","country":"TR","admin1":"35","population":21965},{"key":"turkey_kirkagac","lat":39.10638,"lon":27.66925,"name":"Kırkağaç","nameEn":"Kırkağaç","timezone":"Europe/Istanbul","country":"TR","admin1":"45","population":21789,"aliases":["Kirkagac"]},{"key":"turkey_kuecuekcigli","lat":38.50801,"lon":27.0554,"name":"Küçükçiğli","nameEn":"Küçükçiğli","timezone":"Europe/Istanbul","country":"TR","admin1":"35","population":21784,"aliases":["Kuecuekcigli"]},{"key":"turkey_caycuma","lat":41.42639,"lon":32.07556,"name":"Çaycuma","nameEn":"Çaycuma","timezone":"Europe/Istanbul","country":"TR","admin1":"85","population":21773,"aliases":["Caycuma"]},{"key":"turkey_tepecik","lat":41.02931,"lon":28.54978,"name":"Tepecik","nameEn":"Tepecik","timezone":"Europe/Istanbul","country":"TR","admin1":"34","population":21699},{"key":"turkey_bozova","lat":37.3625,"lon":38.52667,"name":"Bozova","nameEn":"Bozova","timezone":"Europe/Istanbul","country":"TR","admin1":"63","population":21502},{"key":"turkey_havza","lat":40.97056,"lon":35.66222,"name":"Havza","nameEn":"Havza","timezone":"Europe/Istanbul","country":"TR","admin1":"55","population":21500},{"key":"turkey_cikcilli","lat":36.55403,"lon":32.02962,"name":"Cikcilli","nameEn":"Cikcilli","timezone":"Europe/Istanbul","country":"TR","admin1":"07","population":21449},{"key":"turkey_demirci","lat":39.04607,"lon":28.65889,"name":"Demirci","nameEn":"Demirci","timezone":"Europe/Istanbul","country":"TR","admin1":"45","population":21378},{"key":"turkey_cine","lat":37.61266,"lon":28.05912,"name":"Çine","nameEn":"Çine","timezone":"Europe/Istanbul","country":"TR","admin1":"09","population":21327,"aliases":["Cine"]},{"key":"turkey_hacilar","lat":38.64631,"lon":35.44937,"name":"Hacılar","nameEn":"Hacılar","timezone":"Europe/Istanbul","country":"TR","admin1":"38","population":21167,"aliases":["Hacilar"]},{"key":"turkey_cermik","lat":38.13538,"lon":39.445,"name":"Çermik","nameEn":"Çermik","timezone":"Europe/Istanbul","country":"TR","admin1":"21","population":20975,"aliases":["Cermik"]},{"key":"turkey_alapli","lat":41.1814,"lon":31.38514,"name":"Alaplı","nameEn":"Alaplı","timezone":"Europe/Istanbul","country":"TR","admin1":"85","population":20890,"aliases":["Alapli"]},{"key":"turkey_dargecit","lat":37.54616,"lon":41.71652,"name":"Dargeçit","nameEn":"Dargeçit","timezone":"Europe/Istanbul","country":"TR","admin1":"72","population":20793,"aliases":["Dargecit"]},{"key":"turkey_cubuklu","lat":41.10419,"lon":29.08331,"name":"Çubuklu","nameEn":"Çubuklu","timezone":"Europe/Istanbul","country":"TR","admin1":"34","population":20698,"aliases":["Cubuklu"]},{"key":"turkey_evka_uec","lat":38.47071,"lon":27.25094,"name":"Evka-Üç","nameEn":"Evka-Üç","timezone":"Europe/Istanbul","country":"TR","admin1":"35","population":20600,"aliases":["Evka-UEc"]},{"key":"turkey_karacoban","lat":39.34364,"lon":42.09918,"name":"Karaçoban","nameEn":"Karaçoban","timezone":"Europe/Istanbul","country":"TR","admin1":"25","population":20467,"aliases":["Karacoban"]},{"key":"turkey_korkuteli","lat":37.06498,"lon":30.19565,"name":"Korkuteli","nameEn":"Korkuteli","timezone":"Europe/Istanbul","country":"TR","admin1":"07","population":20465},{"key":"turkey_darende","lat":38.54583,"lon":37.50583,"name":"Darende","nameEn":"Darende","timezone":"Europe/Istanbul","country":"TR","admin1":"44","population":20388},{"key":"turkey_kaynasli","lat":40.76917,"lon":31.32211,"name":"Kaynaşlı","nameEn":"Kaynaşlı","timezone":"Europe/Istanbul","country":"TR","admin1":"93","population":20379,"aliases":["Kaynasli"]},{"key":"turkey_geyve","lat":40.5075,"lon":30.2925,"name":"Geyve","nameEn":"Geyve","timezone":"Europe/Istanbul","country":"TR","admin1":"54","population":20199},{"key":"turkey_belen","lat":36.48866,"lon":36.19489,"name":"Belen","nameEn":"Belen","timezone":"Europe/Istanbul","country":"TR","admin1":"31","population":20113},{"key":"turkey_hadim","lat":36.98776,"lon":32.45674,"name":"Hadim","nameEn":"Hadim","timezone":"Europe/Istanbul","country":"TR","admin1":"71","population":20110},{"key":"turkey_emirdag","lat":39.01972,"lon":31.15,"name":"Emirdağ","nameEn":"Emirdağ","timezone":"Europe/Istanbul","country":"TR","admin1":"03","population":20063,"aliases":["Emirdag"]},{"key":"turkey_suermene","lat":40.90588,"lon":40.12792,"name":"Sürmene","nameEn":"Sürmene","timezone":"Europe/Istanbul","country":"TR","admin1":"61","population":20039,"aliases":["Suermene"]},{"key":"turkey_iskilip","lat":40.73528,"lon":34.47389,"name":"İskilip","nameEn":"İskilip","timezone":"Europe/Istanbul","country":"TR","admin1":"19","population":19829,"aliases":["Iskilip"]},{"key":"turkey_hayrabolu","lat":41.21311,"lon":27.10688,"name":"Hayrabolu","nameEn":"Hayrabolu","timezone":"Europe/Istanbul","country":"TR","admin1":"59","population":19793},{"key":"turkey_sile","lat":41.17891,"lon":29.61085,"name":"Şile","nameEn":"Şile","timezone":"Europe/Istanbul","country":"TR","admin1":"34","population":19778,"aliases":["Sile"]},{"key":"turkey_yomra","lat":40.95326,"lon":39.85546,"name":"Yomra","nameEn":"Yomra","timezone":"Europe/Istanbul","country":"TR","admin1":"61","population":19770},{"key":"turkey_ortaca","lat":36.83915,"lon":28.76457,"name":"Ortaca","nameEn":"Ortaca","timezone":"Europe/Istanbul","country":"TR","admin1":"48","population":19741},{"key":"turkey_seferihisar","lat":38.1975,"lon":26.83881,"name":"Seferihisar","nameEn":"Seferihisar","timezone":"Europe/Istanbul","country":"TR","admin1":"35","population":19596},{"key":"turkey_dalaman","lat":36.76591,"lon":28.8028,"name":"Dalaman","nameEn":"Dalaman","timezone":"Europe/Istanbul","country":"TR","admin1":"48","population":19292},{"key":"turkey_tasova","lat":40.75972,"lon":36.3225,"name":"Taşova","nameEn":"Taşova","timezone":"Europe/Istanbul","country":"TR","admin1":"05","population":19253,"aliases":["Tasova"]},{"key":"turkey_nallihan","lat":40.18593,"lon":31.35179,"name":"Nallıhan","nameEn":"Nallıhan","timezone":"Europe/Istanbul","country":"TR","admin1":"68","population":19106,"aliases":["Nallihan"]},{"key":"turkey_balatcik","lat":38.51626,"lon":27.04752,"name":"Balatçık","nameEn":"Balatçık","timezone":"Europe/Istanbul","country":"TR","admin1":"35","population":19082,"aliases":["Balatcik"]},{"key":"turkey_yatagan","lat":37.34025,"lon":28.14279,"name":"Yatağan","nameEn":"Yatağan","timezone":"Europe/Istanbul","country":"TR","admin1":"48","population":19020,"aliases":["Yatagan"]},{"key":"turkey_semdinli","lat":37.30514,"lon":44.5742,"name":"Şemdinli","nameEn":"Şemdinli","timezone":"Europe/Istanbul","country":"TR","admin1":"70","population":18978,"aliases":["Semdinli"]},{"key":"turkey_saraykoey","lat":37.92448,"lon":28.92516,"name":"Sarayköy","nameEn":"Sarayköy","timezone":"Europe/Istanbul","country":"TR","admin1":"20","population":18937,"aliases":["Saraykoey"]},{"key":"turkey_guergentepe","lat":40.78995,"lon":37.60073,"name":"Gürgentepe","nameEn":"Gürgentepe","timezone":"Europe/Istanbul","country":"TR","admin1":"52","population":18771,"aliases":["Guergentepe"]},{"key":"turkey_varto","lat":39.17375,"lon":41.45402,"name":"Varto","nameEn":"Varto","timezone":"Europe/Istanbul","country":"TR","admin1":"49","population":18691},{"key":"turkey_incirliova","lat":37.85222,"lon":27.72361,"name":"İncirliova","nameEn":"İncirliova","timezone":"Europe/Istanbul","country":"TR","admin1":"09","population":18572,"aliases":["Incirliova"]},{"key":"turkey_narlica","lat":36.23533,"lon":36.21458,"name":"Narlıca","nameEn":"Narlıca","timezone":"Europe/Istanbul","country":"TR","admin1":"31","population":18445,"aliases":["Narlica"]},{"key":"turkey_gazipasa","lat":36.26942,"lon":32.31792,"name":"Gazipaşa","nameEn":"Gazipaşa","timezone":"Europe/Istanbul","country":"TR","admin1":"07","population":18371,"aliases":["Gazipasa"]},{"key":"turkey_diyadin","lat":39.54056,"lon":43.67135,"name":"Diyadin","nameEn":"Diyadin","timezone":"Europe/Istanbul","country":"TR","admin1":"04","population":18172},{"key":"turkey_kizilcahamam","lat":40.46972,"lon":32.65056,"name":"Kızılcahamam","nameEn":"Kızılcahamam","timezone":"Europe/Istanbul","country":"TR","admin1":"68","population":17975,"aliases":["Kizilcahamam"]},{"key":"turkey_konakli","lat":36.59251,"lon":31.89539,"name":"Konaklı","nameEn":"Konaklı","timezone":"Europe/Istanbul","country":"TR","admin1":"07","population":17966,"aliases":["Konakli"]},{"key":"turkey_tarabya","lat":41.13361,"lon":29.04639,"name":"Tarabya","nameEn":"Tarabya","timezone":"Europe/Istanbul","country":"TR","admin1":"34","population":17852},{"key":"turkey_cerkes","lat":40.81164,"lon":32.89358,"name":"Çerkeş","nameEn":"Çerkeş","timezone":"Europe/Istanbul","country":"TR","admin1":"82","population":17802,"aliases":["Cerkes"]},{"key":"turkey_dursunbey","lat":39.58596,"lon":28.62568,"name":"Dursunbey","nameEn":"Dursunbey","timezone":"Europe/Istanbul","country":"TR","admin1":"10","population":17532},{"key":"turkey_hopa","lat":41.39046,"lon":41.41966,"name":"Hopa","nameEn":"Hopa","timezone":"Europe/Istanbul","country":"TR","admin1":"08","population":17519},{"key":"turkey_denizciler","lat":36.6411,"lon":36.21418,"name":"Denizciler","nameEn":"Denizciler","timezone":"Europe/Istanbul","country":"TR","admin1":"31","population":17495},{"key":"turkey_taskoeprue","lat":41.5098,"lon":34.21414,"name":"Taşköprü","nameEn":"Taşköprü","timezone":"Europe/Istanbul","country":"TR","admin1":"37","population":17491,"aliases":["Taskoeprue"]},{"key":"turkey_kemer","lat":36.59778,"lon":30.56056,"name":"Kemer","nameEn":"Kemer","timezone":"Europe/Istanbul","country":"TR","admin1":"07","population":17300},{"key":"turkey_tekkekoey","lat":41.21167,"lon":36.46,"name":"Tekkeköy","nameEn":"Tekkeköy","timezone":"Europe/Istanbul","country":"TR","admin1":"55","population":17226,"aliases":["Tekkekoey"]},{"key":"turkey_serinhisar","lat":37.58105,"lon":29.26639,"name":"Serinhisar","nameEn":"Serinhisar","timezone":"Europe/Istanbul","country":"TR","admin1":"20","population":17169},{"key":"turkey_tirebolu","lat":41.00694,"lon":38.81389,"name":"Tirebolu","nameEn":"Tirebolu","timezone":"Europe/Istanbul","country":"TR","admin1":"28","population":17124},{"key":"turkey_banaz","lat":38.73707,"lon":29.75194,"name":"Banaz","nameEn":"Banaz","timezone":"Europe/Istanbul","country":"TR","admin1":"64","population":17080},{"key":"turkey_horasan","lat":40.03885,"lon":42.16366,"name":"Horasan","nameEn":"Horasan","timezone":"Europe/Istanbul","country":"TR","admin1":"25","population":17067},{"key":"turkey_hilvan","lat":37.58687,"lon":38.95505,"name":"Hilvan","nameEn":"Hilvan","timezone":"Europe/Istanbul","country":"TR","admin1":"63","population":16990},{"key":"turkey_ermenek","lat":36.64043,"lon":32.89179,"name":"Ermenek","nameEn":"Ermenek","timezone":"Europe/Istanbul","country":"TR","admin1":"78","population":16986},{"key":"turkey_gemerek","lat":39.18342,"lon":36.07189,"name":"Gemerek","nameEn":"Gemerek","timezone":"Europe/Istanbul","country":"TR","admin1":"58","population":16916},{"key":"turkey_egirdir","lat":37.87462,"lon":30.85042,"name":"Eğirdir","nameEn":"Eğirdir","timezone":"Europe/Istanbul","country":"TR","admin1":"33","population":16891,"aliases":["Egirdir"]},{"key":"turkey_bayindir","lat":38.21741,"lon":27.64744,"name":"Bayındır","nameEn":"Bayındır","timezone":"Europe/Istanbul","country":"TR","admin1":"35","population":16850,"aliases":["Bayindir"]},{"key":"turkey_serinyol","lat":36.36139,"lon":36.21361,"name":"Serinyol","nameEn":"Serinyol","timezone":"Europe/Istanbul","country":"TR","admin1":"31","population":16753},{"key":"turkey_korgan","lat":40.82472,"lon":37.34667,"name":"Korgan","nameEn":"Korgan","timezone":"Europe/Istanbul","country":"TR","admin1":"52","population":16733},{"key":"turkey_uerguep","lat":38.6296,"lon":34.91199,"name":"Ürgüp","nameEn":"Ürgüp","timezone":"Europe/Istanbul","country":"TR","admin1":"50","population":16642,"aliases":["UErguep"]},{"key":"turkey_elmali","lat":36.73583,"lon":29.91775,"name":"Elmalı","nameEn":"Elmalı","timezone":"Europe/Istanbul","country":"TR","admin1":"07","population":16587,"aliases":["Elmali"]},{"key":"turkey_mucur","lat":39.06147,"lon":34.38286,"name":"Mucur","nameEn":"Mucur","timezone":"Europe/Istanbul","country":"TR","admin1":"40","population":16522},{"key":"turkey_turgutreis","lat":37.01667,"lon":27.26667,"name":"Turgutreis","nameEn":"Turgutreis","timezone":"Europe/Istanbul","country":"TR","admin1":"48","population":16490},{"key":"turkey_lice","lat":38.45821,"lon":40.63888,"name":"Lice","nameEn":"Lice","timezone":"Europe/Istanbul","country":"TR","admin1":"21","population":16336},{"key":"turkey_kandira","lat":41.07,"lon":30.15262,"name":"Kandıra","nameEn":"Kandıra","timezone":"Europe/Istanbul","country":"TR","admin1":"41","population":16264,"aliases":["Kandira"]},{"key":"turkey_arhavi","lat":41.35121,"lon":41.30456,"name":"Arhavi","nameEn":"Arhavi","timezone":"Europe/Istanbul","country":"TR","admin1":"08","population":16217},{"key":"turkey_arsin","lat":40.95271,"lon":39.92674,"name":"Arsin","nameEn":"Arsin","timezone":"Europe/Istanbul","country":"TR","admin1":"61","population":16148},{"key":"turkey_sarigerme","lat":36.71549,"lon":28.70436,"name":"Sarigerme","nameEn":"Sarigerme","timezone":"Europe/Istanbul","country":"TR","admin1":"48","population":16000},{"key":"turkey_baskil","lat":38.56866,"lon":38.81634,"name":"Baskil","nameEn":"Baskil","timezone":"Europe/Istanbul","country":"TR","admin1":"23","population":15922},{"key":"turkey_senirkent","lat":38.10444,"lon":30.54861,"name":"Senirkent","nameEn":"Senirkent","timezone":"Europe/Istanbul","country":"TR","admin1":"33","population":15919},{"key":"turkey_istinye","lat":41.11008,"lon":29.05094,"name":"İstinye","nameEn":"İstinye","timezone":"Europe/Istanbul","country":"TR","admin1":"34","population":15721,"aliases":["Istinye"]},{"key":"turkey_osmaneli","lat":40.35722,"lon":30.01417,"name":"Osmaneli","nameEn":"Osmaneli","timezone":"Europe/Istanbul","country":"TR","admin1":"11","population":15708},{"key":"turkey_ezine","lat":39.78561,"lon":26.34083,"name":"Ezine","nameEn":"Ezine","timezone":"Europe/Istanbul","country":"TR","admin1":"17","population":15677},{"key":"turkey_cat","lat":39.60641,"lon":40.96844,"name":"Çat","nameEn":"Çat","timezone":"Europe/Istanbul","country":"TR","admin1":"25","population":15556,"aliases":["Cat"]},{"key":"turkey_caglayancerit","lat":37.74523,"lon":37.28618,"name":"Çağlayancerit","nameEn":"Çağlayancerit","timezone":"Europe/Istanbul","country":"TR","admin1":"46","population":15530,"aliases":["Caglayancerit"]},{"key":"turkey_askale","lat":39.92083,"lon":40.695,"name":"Aşkale","nameEn":"Aşkale","timezone":"Europe/Istanbul","country":"TR","admin1":"25","population":15462,"aliases":["Askale"]},{"key":"turkey_kestel_2","lat":36.50861,"lon":32.08278,"name":"Kestel","nameEn":"Kestel","timezone":"Europe/Istanbul","country":"TR","admin1":"07","population":15445},{"key":"turkey_solhan","lat":38.96525,"lon":41.05443,"name":"Solhan","nameEn":"Solhan","timezone":"Europe/Istanbul","country":"TR","admin1":"12","population":15303},{"key":"turkey_hizan","lat":38.22498,"lon":42.4183,"name":"Hizan","nameEn":"Hizan","timezone":"Europe/Istanbul","country":"TR","admin1":"13","population":15302},{"key":"turkey_kadinhani","lat":38.23972,"lon":32.21139,"name":"Kadınhanı","nameEn":"Kadınhanı","timezone":"Europe/Istanbul","country":"TR","admin1":"71","population":15301,"aliases":["Kadinhani"]},{"key":"turkey_yesilova","lat":38.15566,"lon":36.25758,"name":"Yeşilova","nameEn":"Yeşilova","timezone":"Europe/Istanbul","country":"TR","admin1":"81","population":15242,"aliases":["Yesilova"]},{"key":"turkey_bigadic","lat":39.3925,"lon":28.13111,"name":"Bigadiç","nameEn":"Bigadiç","timezone":"Europe/Istanbul","country":"TR","admin1":"10","population":15242,"aliases":["Bigadic"]},{"key":"turkey_akhisar_2","lat":40.11825,"lon":29.46623,"name":"Akhisar","nameEn":"Akhisar","timezone":"Europe/Istanbul","country":"TR","admin1":"16","population":15198},{"key":"turkey_tasucu","lat":36.3214,"lon":33.88165,"name":"Taşucu","nameEn":"Taşucu","timezone":"Europe/Istanbul","country":"TR","admin1":"32","population":15184,"aliases":["Tasucu"]},{"key":"turkey_kocaali","lat":41.05336,"lon":30.85278,"name":"Kocaali","nameEn":"Kocaali","timezone":"Europe/Istanbul","country":"TR","admin1":"54","population":15076},{"key":"turkey_espiye","lat":40.94705,"lon":38.70299,"name":"Espiye","nameEn":"Espiye","timezone":"Europe/Istanbul","country":"TR","admin1":"28","population":15058}]